shop_name,lat,lon
BONK & CO LTD,55.956249092410815,-3.167235911454824
Caf‚ at the Palace,55.952833983379065,-3.17392356335458
Queen's Gallery Shop,55.95251136319345,-3.173833722752235
vacant,55.9544725243082,-3.1735887823046207
Click Printwear,55.954258020399216,-3.1486777989195343
Karens Unicorn,55.95691019941061,-3.1938918949685293
vacant,55.97032011280733,-3.1700950511782726
The Devil's Advocate,55.950291908048136,-3.191622339688488
The Magnum,55.956756264313945,-3.1930863129511926
Alex Kirkwood and Sons,55.95690882346639,-3.19217804286149
Charles Kivlin Hair Studio,55.95701552476117,-3.1932224255487838
Serap Couture,55.95703395553543,-3.1931749417968502
Golden Ambal,55.96250010124605,-3.1788618022438766
Helen Dean,55.962445438190294,-3.1789402359291326
Eastern Masala,55.96240920042899,-3.178971172269305
Albert Business Centre,55.96229104454753,-3.1791117510935973
Star Premier,55.96235469053949,-3.179033591144663
Sandwich Express,55.96225465349439,-3.179158701582529
Bharsa Boutique,55.96222739850651,-3.179189910786728
Silver Bowl,55.962191007423854,-3.1792368611256685
Airlink Travel (Scotland) Ltd.,55.962154616323474,-3.1792838113767132
The Tail End,55.962109089104615,-3.179346502659311
Black Fox,55.96202732397619,-3.179440129395609
Sauna,55.9619199898956,-3.179388807238072
Haze Vapours,55.96196337113197,-3.179550316638065
Urban Tech,55.961936116045884,-3.1795815253340605
Tailor,55.961908860951986,-3.1796127339863443
Smart Buzz,55.9618814525366,-3.1796599568687327
Glam,55.96184521459631,-3.179690892091221
The Cutting Room,55.961817806151295,-3.1797381148410704
Fair Trade Coffe Shop,55.96174502355471,-3.1798320134152225
Word of Mouth,55.96249310999785,-3.178653340194204
Randall Associates,55.96243946159579,-3.176745428531201
Rajjah's Supermarket,55.96243353708314,-3.1764248655012177
W.W. & J. Borland,55.962428223134324,-3.1760402444775515
vacant,55.962338935883395,-3.1712638397631183
vacant,55.962712833162215,-3.178227499745673
vacant,55.96271329254294,-3.178179455869124
Sicilian Pastry Shop,55.96271436435847,-3.178067353485068
Ben Stores,55.96270675942604,-3.177922948906945
Khyber Kebabs,55.96270767793127,-3.177826861156983
Graham Cherrie,55.962708137155815,-3.177778817279906
Icosis,55.96275442887749,-3.1776360499596046
Juding,55.96275442887749,-3.1776360499596046
vacant,55.96275442887749,-3.1776360499596046
Stone Restore,55.96259957961597,-3.1731459629019674
vacant,55.96259196891125,-3.1730015596372483
vacant,55.962593950596634,-3.1727933697542787
S & J Albert Stores,55.96258055667613,-3.1723123882039466
Red Triangle Solutions,55.9625814708065,-3.172216300573498
Holt Insulation Ltd.,55.96256213709018,-3.171414755838774
The Office,55.96256365943266,-3.1712546098096337
The Football Programme Shop,55.96181412185605,-3.170703342351303
Smokey Jim's,55.9618614702867,-3.1704484695239747
Good Old Days Vintage,55.96187121370675,-3.1703686691022086
Day-Today Express,55.961977280679214,-3.1677127244032346
Albion Road Garage,55.961785604862236,-3.168027328769096
Albion Road Garage,55.961741297735486,-3.167961918496502
Scorpio Leisure,55.96168770413203,-3.1679282662983397
Lifestyle Stop & Shop,55.96114612257413,-3.167239170089075
vacant,55.96111125294809,-3.167125990142224
vacant,55.96109389393418,-3.1670613932343987
Greenshoots,55.93651300081876,-3.241177882415975
Davidson & Robertson,55.92559397891097,-3.2448938152588824
Edinburgh Larder,55.950627776050894,-3.2097128443991565
vacant,55.95036303136611,-3.2101369719275943
Claire's Beauty and Health,55.949823453333195,-3.211096992978225
Bri Boutique,55.94999192192703,-3.211326450648242
Edinburgh Bicycle Co-operative,55.93783426082228,-3.2031024659991996
Prom Bar,55.97962311528357,-3.187620262434847
vacant,55.97963148051898,-3.1876846240301906
Newhaven Express,55.979639691322205,-3.1877650072165604
vacant,55.97964790207285,-3.1878453904362836
The Haven,55.97965611277095,-3.1879257736893623
The Diggers,55.93897829067211,-3.223790264982589
AEIS,55.93894188278608,-3.2238371454279187
n/a,55.938896333148854,-3.223899746993818
Sofa and Stuff,55.938823358243965,-3.2240095118940677
Caledonian Sample Room,55.93767323423891,-3.2258142737746756
Angle Park Convienence store,55.937544290572724,-3.226130380433748
Red Lemon,55.93751686451512,-3.226177540796575
vacant,55.93749842114876,-3.226224984941631
Irvine Upholsterers,55.93753094417535,-3.2256656980979024
Scotmid Funeral Directors,55.93766918777517,-3.225317865602548
Entreprise,55.96008165792528,-3.1836898377876945
Open Spice,55.9796940756019,-3.188648122105646
The Annfield,55.97974178997859,-3.1892906396537057
Pomegranate,55.95771122660741,-3.1853793705891618
Deep Sea Fish & Chips,55.95775660282126,-3.1853327060064376
Mama Roma,55.95783821834847,-3.1852551145124917
L. Freedman,55.95800160327088,-3.1850839179095667
Ada,55.95801972291211,-3.1850684543424106
Kushis,55.95809220145777,-3.185006599930205
Caf‚ Marlayne,55.95821005602316,-3.1848980796565733
Powerhouse,55.958255432056276,-3.1848514139161717
Bank of Scotland / HBOS,55.939054182103,-3.2260980428287063
Natisse Hairdressing,55.93897317843094,-3.226111492858784
Springwell Pharmacy,55.93888319204918,-3.226124658994576
Auld Reekie,55.93748848248826,-3.226320724708298
Activity Awards,55.937452551652854,-3.2263195892256458
Argyle Bar/The Hide,55.93852070617531,-3.191645057378451
Nadia's Fruit Market,55.93834120455718,-3.1916235357627967
Cheryl Irvine,55.93840392948625,-3.191641471240698
vacant,55.9384579812482,-3.1916271218381453
Bodywell,55.93855663746378,-3.191646160810788
The New Leaf,55.93859256875201,-3.1916472642456326
vacant,55.9386913797935,-3.191650298704407
Bicycle Works,55.93879019083329,-3.191653333182167
Helen Lucas / The Roberts Partnership/ David Narro etc.,55.939032572180956,-3.1916767863027924
Burgess Adams,55.93925714270881,-3.191683683112244
Meadowlark Cafe,55.939302056813304,-3.1916850624859037
Meadowlark,55.939382902200556,-3.191687545368378
Tang & Co,55.93943679912472,-3.1916892006304214
Meadowlark,55.93949952403053,-3.191707136745504
n/a,55.93240873303538,-3.2284171904255192
Dian Ward Hairdressing,55.93248830059307,-3.2285477640420743
Klaklack Design & Photography,55.93251476987495,-3.2285966226571694
M.A's Newsagents,55.9332924717141,-3.2299018208636787
James Aird,55.933318780650495,-3.2299666836091747
SHS Burbridge Architects,55.93334524935693,-3.23001554423703
n/a,55.933389683448084,-3.230064974318297
Craigflower Lettings,55.93341615211452,-3.2301138351025487
Colbalt Hair,55.933606706516606,-3.2299277861937816
Revive Beauty,55.93358023777768,-3.2298789252935847
Fintec,55.93355360923801,-3.2298460667523767
Owen and Co,55.933518477309946,-3.2297649167855034
Pollination,55.93348286603578,-3.229731773757399
Kharma Hair,55.933456397217306,-3.229682913146823
Blueberry Hill,55.93342992837901,-3.2296340526028566
Margiotta,55.93336800793903,-3.2295360471437182
Khublai Khan's Barbecue,55.97512261989409,-3.1658493804340537
China Town,55.9476074052823,-3.213493823415474
Blackwood Partnership,55.94740521138981,-3.213951876171967
The Devil's Scribe,55.947267157305035,-3.2142838283578454
Hughes Walker Solicitors,55.947185681533064,-3.214345329688468
Standard Life,55.95377601073991,-3.1200278160508903
Party Planet,55.95047472646957,-3.120428920882656
Ratho Surgery,55.9227442782301,-3.3783162128638695
Bridge Inn,55.923204905060295,-3.3789086890648092
Ian J. Mellis,55.95769965010992,-3.207851215558277
Stockbridge Kitchen,55.95770831890728,-3.207883520140852
Starbucks,55.9577259704366,-3.2079161045625404
Counselling Office,55.92561399608198,-3.2122621397171933
Griffen fitness,55.96571364758183,-3.176380224822851
A M Licensed Grocer,55.96659208667993,-3.177544366161078
Dental Lab,55.96661540774868,-3.176984343476273
Renewit,55.93462179221471,-3.246047808944903
B.M.,55.93459500616293,-3.2460309411078274
Kimmy's Caf‚,55.93455939934478,-3.2459977822888177
Beauteous,55.934523630639006,-3.245980626125722
Turkish Community Centre,55.934461399611315,-3.245914597136725
Balgreen Fryer Fish Bar,55.93442579276008,-3.245881438539906
MGA Academy of Performance Arts,55.934256741010614,-3.245715934797389
vacant,55.934016151477536,-3.2455161214621215
John Richards Landscape Architect,55.93398070632563,-3.2454669612416525
I Fire,55.933945099347376,-3.2454338034707475
William Hill,55.933910463139064,-3.245304631687813
vacant,55.93392090181814,-3.2451608987587766
Lucky Star,55.93755759156534,-3.2498401671177133
Downs Syndrome Scotland,55.937504507694996,-3.2497584122362424
Senga's,55.937442603502944,-3.249660364528256
U Save / post office,55.937380699230786,-3.2495623171333294
Pasha's,55.93731879487856,-3.249464270051458
Kevin Shaw Lighting Design,55.97536203259788,-3.1642861845315986
Jonathon Martin,55.97359643828828,-3.177052147186729
James Pringle Shopping Warehouse (Edinburgh Woollen Mill),55.97195318619711,-3.1797582112968774
Coda Music,55.94993506646081,-3.193212779986116
Chatime,55.94993615178687,-3.1931007151321578
Itailian on Mound,55.94987358225579,-3.193066762465162
Zebra Coffee Co.,55.949810857682934,-3.1930488191230575
I Love Scotland,55.949748288135446,-3.1930148666520535
The Markar's Rest,55.94991291365097,-3.1936444771871555
Bank of Scotland,55.92339362399448,-3.2910406580653477
Clydesdale Bank,55.923480094438865,-3.291363600262134
Makro,55.92792332123777,-3.2909512248018196
Food to Go,55.92536571634025,-3.300884762759916
Calor Shop,55.92676733302426,-3.2949299631837907
Maggie's Snack Bar,55.924336111653346,-3.3005301891919916
Topps Tiles,55.921600219989244,-3.2975260798589865
Direct Flooring,55.92190427603794,-3.2976642622828245
vacant,55.922038170448474,-3.297748751005719
Capital Hair & Beauty,55.922315110161776,-3.297902033242597
Arnold Clark,55.9274102033609,-3.302985908033383
Shapes,55.92610524843922,-3.293803572884645
Henrick's,55.94038052408346,-3.2036777301391988
The Apartment,55.94026265312586,-3.2037861440444018
Bruntsfield Physiotherapy,55.94021742640383,-3.203816761006983
Jet / MRH Retail,55.93986381288264,-3.2041419981405403
Pedals,55.939836551630776,-3.2041731719201536
Thomas H.G. Stewart,55.93981827315013,-3.2042046244338067
Totty Rocks,55.93975492429853,-3.2042506879964905
William Watt,55.93970040173253,-3.2043130351858617
Sirs Barber,55.939664627092924,-3.2042959150175023
Fantouche Vintage,55.9396471309499,-3.204247342554929
Matson Henderson Architects,55.93962963478746,-3.204198770135989
Gordon Stevenson Violins,55.93962127783996,-3.2041344715774795
Black Medicine Coffee Co.,55.93960362518407,-3.2041019041806615
vacant,55.93957792837351,-3.2039730284957813
Skool Is Out,55.93956925845461,-3.203940739922441
Katie's Diner,55.93955176217004,-3.2038921677379597
Port of Siam,55.95817042922018,-3.189942356791879
Q Store,55.9581609824806,-3.189990119159289
Broughton Deli & Cafe,55.9581513810653,-3.190053894176876
The Pond,55.9746496992001,-3.1607394627091594
The Beach House,55.95474215335787,-3.1105743329953293
Hamiltons,55.95308369609976,-3.1141302532076707
Scotmid,55.953505030457194,-3.114238449333674
citizens advice,55.95326668656409,-3.1137671595072494
Stephen McIntyre & Co Ltd.,55.95328508686596,-3.113719642182659
Halo,55.953348981275376,-3.1136093701160306
Flicks,55.95338578174017,-3.113514335069769
Butternut Squash,55.95330334242148,-3.1136881359149675
vacant,55.95452976841037,-3.111208881182552
vacant,55.95459380498591,-3.111082589790662
The Esplanade,55.95481170828336,-3.1108325788893363
Scotmid,55.88250136217209,-3.3388412366884954
The Ballerno Fry,55.882690861597546,-3.3387678279586397
Tony Harper,55.882668550547194,-3.3391667262287923
Planet Out,55.95758403031653,-3.1845906406262725
Taste of Italy,55.95765697043781,-3.184480748496562
Right Medicine,55.93504496689375,-3.19333121451446
City Couriers,55.935026226012866,-3.193410677666489
Blossom Beauty,55.93501646790231,-3.19349041698956
IMMS,55.934997726919285,-3.193569880005136
vacant,55.934941038342586,-3.1938562778196324
PSL TEAMSPORTS LTD.,55.96497749136369,-3.194989413627966
The Edinburgh Nursery,55.964655550081694,-3.192047808414781
City Brides,55.96482064812024,-3.191700441284274
The Edinburgh Nursery,55.96482064812024,-3.191700441284274
Caf‚ Morfal,55.95126194994585,-3.2192132844069397
The Waiting Room,55.92531832465081,-3.2103484409167096
Bellevue Express,55.962558189960134,-3.18871539330409
HMO Scotland,55.961505995977426,-3.190669464097082
Edinburgh Patchworks,55.961586841101244,-3.1906719469345255
No.1 Takeaway,55.975228480374874,-3.1670063241260147
William Hill,55.97525467042045,-3.167087235066111
Bernard's Bar,55.975299129533646,-3.167136647473234
Moda,55.97532547121319,-3.1672015387497034
Pierino's,55.97535181285809,-3.167266430114153
LG Beauty Clinic,55.97539581668371,-3.1673639026325318
Leith Print and Copy,55.975439972183686,-3.167445355427281
Cafe Marmalade,55.97549311047455,-3.167527079059816
China Palace,55.97573063796958,-3.168063048834218
Sainsbury's Local,55.97592066624925,-3.1688700129604945
Beets,55.975955685948264,-3.1689672177306645
Frosts,55.975999536445755,-3.1690807138562516
Flux,55.97603470795331,-3.16916189883272
Petals by the Shore,55.97606957542966,-3.1692751243453827
Royal Bank of Scotland,55.975599962290026,-3.1666809956587643
Clydesdale Bank,55.975643208224135,-3.1668585683086894
Mint Leaf,55.976082942537246,-3.167865346639354
Boom Barbers,55.97615968856156,-3.168300329737297
vacant,55.97611371125214,-3.1684111170746667
The Carriers Quarters,55.97611264805276,-3.168523258594029
SESH HAIRDRESSING LIMITED,55.97626886967499,-3.1691048647287983
Loaded,55.976293994417,-3.1692979212625967
Royal Bank of Scotland,55.901336685268774,-3.204771160613254
Taxassist Accountants,55.901417217832496,-3.2048056455929377
Zaid's Mini Market,55.90115765443908,-3.2047016341126593
Collars and Cuts,55.90047386377904,-3.2047923912199696
Craigdon Mountain Sports / Apres caf‚,55.89726301330886,-3.204181097596179
The Steading,55.89051743100423,-3.2011579705478317
SAFDAR SARDAR,55.94023551839425,-3.1199731368954833
Blackford Avenue Post Office,55.92747544481212,-3.1872087634655375
The Avenue Store,55.9274534683327,-3.187624214800026
The Veterinary Cat Clinic,55.92736456550181,-3.1875254667312882
Dog Aid Society of Scotland,55.92628422795535,-3.1858759892476187
Pentland Crown & Bridge,55.92590791533952,-3.183895989408239
The Paint Shed,55.92589117994525,-3.183767446294473
The 'A' Team (Adlec Electrical / James Adama Plumbers),55.92584051174399,-3.1834298157698306
Belle Cheveux,55.925823468410655,-3.183333271835633
vacant,55.95016616686914,-3.1860295486842714
Joanna's Place,55.95009476663488,-3.185979323146001
Edinburgh Lader,55.95004117791722,-3.185945656452216
Thia Therapy Centre / Hoeyyn Arts Gallery,55.94984463450175,-3.185827549135123
Rent-a-Bike (Cycle Scotland),55.949800028563274,-3.185794157492366
Old Town Tattoos,55.94953193052894,-3.1856418366871777
Black Bo's,55.949299455487726,-3.185522634281772
tete-a-tete,55.94913560766925,-3.1857418180738333
vacant,55.94908186479488,-3.1857241615138956
"vacant (formerly Zara, hot food take away)",55.94904624164561,-3.185691045246798
Transition (Turning Point Scotland),55.94937544376077,-3.187894997596011
The City Caf‚,55.94916976506087,-3.187792616411156
Mercat Tours,55.949164486003525,-3.187408125857641
Blair Street Sauna,55.94907527497463,-3.187341340219707
Patterson Bell,55.94903066944563,-3.1873079475168025
Cabaret Voltaire Bar,55.94894997834109,-3.1872894639670335
Royal Bank of Scotland,55.95768591985028,-3.184273409007221
Dofos Pet Centre,55.95767862987748,-3.184096997024744
The Bonaly Corner Shop,55.90106969257295,-3.2592863523032922
The Radiator Store,55.97300981627044,-3.1941314583432017
BUYRITE BATHROOMS,55.96927054960751,-3.183089239888612
Freeze Pro Shop,55.96879338448514,-3.183186827561847
The Cloth Shop,55.96893080239073,-3.1838479187077886
vacant,55.97270916641243,-3.1758715130572512
Fat Yankee's,55.97264598096334,-3.175901642642357
Best One,55.96927866945254,-3.1841148959989725
Amor,55.96922354132584,-3.184241387650947
vacant,55.96915896844233,-3.184415656209478
Bonnington Brunch,55.96913109633047,-3.18451093615053
The Bonnington,55.969103532081625,-3.184574181497867
Molly's Nursery,55.97022296702226,-3.182156969173546
Boswall Drive Post Office,55.975063129936316,-3.2193531126313704
vacant,55.975125691678784,-3.2193871302617016
Hairizon Hairdressing,55.97620056585572,-3.2224496705415473
Scotmid,55.976180534648485,-3.2226573628504447
Boswall Newsagent,55.976169803660056,-3.2228332985772834
Allan Campbell,55.976160185179864,-3.222897094777193
Day Today,55.97614031220486,-3.22308876671877
Greggs,55.97518135243312,-3.2381375978117437
Scotmid  Funeral Directors,55.97518920843814,-3.238250020802309
Lloyds TSB Scotland,55.97485060496223,-3.2379667856370085
MM News,55.97484049589934,-3.2380786336461616
Darins,55.97483985216889,-3.2381427107725473
Angela Rae,55.97483006484515,-3.2382225201493404
The Witchery,55.94881526275181,-3.19564442303193
vacant,55.96030819642683,-3.1703214875154857
Lloyds TSB Scotland,55.97109368609341,-3.208188499087073
Coral,55.97107301777511,-3.2075469428264882
Spiers Bar,55.97108325606648,-3.207419079410854
Elan Hairdressing,55.91978191803162,-3.167675648404169
vacant,55.919880578543946,-3.16769461676536
vacant,55.91599350304011,-3.208297808548268
Golf Shop,55.916206008508894,-3.2040323793050125
William Purves,55.924598892599306,-3.209493824218174
NC Tech,55.92401454025094,-3.2095236302884027
Lux Events,55.923906589708594,-3.2095362706279107
NC Tech,55.92382574464522,-3.20953375203557
Craig Booth,55.923627809120156,-3.2095595921775897
Craig Booth Electrical Contractors,55.92358273806458,-3.2095741912503866
Alasdair N. Morrison,55.923546649792236,-3.209589070142679
vacant,55.962219195185526,-3.200511083716127
Di Gorgio,55.96239828991813,-3.1996515929234524
Warriston Post Office,55.96237071796797,-3.1997148164831106
Kavelle,55.96230659121085,-3.1998409853293897
Gayfield Design,55.96226972450922,-3.1999359592202925
Forth Flooring,55.9622148922152,-3.2000303768385554
Blue Bear,55.962187476041336,-3.200077585547586
Edina Lock & Key Co.,55.962132175690584,-3.20022004553954
Phase,55.96209546469677,-3.200299004399006
John Hall,55.962049614886254,-3.200393699207123
Martinez Antiques,55.96202219857454,-3.2004409074577578
Beauty at Brandon Terrace,55.96200360898174,-3.200504407994173
Sandy Jones,55.96197619262801,-3.200551616110388
The Art Club,55.96193034262514,-3.200646310327818
Coffee Angel,55.9618936313607,-3.200725268371618
Pasha,55.94594787261911,-3.204971338555883
Barber Shop,55.94594912514477,-3.204843278146167
City Grill Steakhouse,55.94595006445171,-3.204747232832213
Bento Ya,55.945950847150286,-3.2046671950662193
Jazz Tattoos,55.94595147327175,-3.2046031648505697
Amusements,55.94595288192341,-3.2044590968560707
Home Taste,55.94595397742494,-3.204347043962575
Duncan McLaren,55.94594655948033,-3.2041866895490934
Caf‚ Plus,55.945947498275515,-3.204090644218327
The Heathly Life Centre,55.94594843699584,-3.203994598881852
Blue Blazer,55.94594743032349,-3.2031779346869427
vacant,55.94593149703353,-3.2029692792693862
vacant,55.94593259118017,-3.2028572263763677
vacant,55.945933216361084,-3.2027931961483
Smooch,55.945933685224944,-3.202745173475585
vacant,55.94593431034764,-3.202681143243081
Buro Happold,55.94593493543709,-3.2026171130080416
Digital Design Scotland,55.94593587300888,-3.2025210676507294
"Mission Hair
Mission Hair",55.94593681050582,-3.2024250222877155
Stand Up caf‚,55.94593759169611,-3.2023449844808463
Kingfisher,55.945930014931,-3.2022006380405332
Main Point Book,55.94593126457724,-3.202072577559534
Tattoo Studio Edinburgh,55.945931889350454,-3.202008547315233
Crown Ciouture,55.94568799862897,-3.204899217285445
West End Veterinary Partnership,55.94569886001821,-3.2047074069039487
Babelious,55.94570136438069,-3.2044512876929607
Medusa,55.945702772850694,-3.2043072206189285
The Chanter,55.94569043950286,-3.2037303947350355
Porteous,55.90714099592349,-3.2569396937678734
MacKenzies,55.90766687596619,-3.25559698482681
Pizza Connection,55.90761134917515,-3.2557551574338697
Colinton Hair Design,55.90760204032327,-3.2557868499734655
Fanelli's Delicatessen & Coffee Shop,55.90753736751509,-3.255960723063925
Colinton Inn,55.907445583361394,-3.256149715628703
Citidogs,55.907417330153535,-3.2562767752472968
Java Moment,55.90740785799836,-3.256324458866886
Canine Cuts,55.90745277125301,-3.2563259112959977
D. Sykes,55.907406715749566,-3.256436398413769
Interior Solutions,55.90739724353281,-3.2564840819805427
Mathur's Colinton Convenience Store,55.90737797263168,-3.2566114317446835
Brown Associates,55.90736784747282,-3.2567230806159855
T.H. Downes,55.90735804868345,-3.2568027467459872
Moodz,55.907348249842705,-3.2568824128350813
Colinton Post Office,55.90735968373746,-3.2575226476851173
Colinton Village Pharmacy,55.90736768638704,-3.2576188864897264
Dantes Tratoria,55.90737258490565,-3.2580189608135335
Colinton Arts,55.907371277710695,-3.2581468915243743
Peaches of Colinton Beauty Salon,55.90737927987171,-3.2582431304790425
Colinton Opticians,55.90737862617435,-3.2583070958413023
vacant,55.90737780900599,-3.2583870525404075
Royal Bank of Scotland,55.90738532061551,-3.258531265583524
vacant,55.9390202400745,-3.4074721516555417
Newbridge Inn,55.93935387596333,-3.4081566810839137
Budget Appliances,55.939091932844214,-3.4082752554898237
vacant,55.93910613857402,-3.4054579988235916
vacant,55.93894245276114,-3.4056281799397254
Autoland Car Sales,55.93893511421418,-3.4054838241370806
vacant,55.95263164771199,-3.114437566785073
La Favorita,55.952604408921395,-3.11446881402136
Martha's Attic,55.952586153168085,-3.1145003193557113
Chiko's,55.95254964163757,-3.114563329935477
Bonoful,55.95248574638225,-3.1146735981647278
Brian F. Forde,55.95242199589812,-3.1147678552984597
Shapes,55.95239461215151,-3.114815112855746
Assembly Checkpoint,55.94625566977633,-3.1899451386452764
John Donald & Co.,55.94645809894335,-3.190383688116963
El Falafel,55.945951027091795,-3.1898557320256797
Napiers Dispensary,55.945889074995996,-3.189757757696726
Napiers Dispensary,55.94584508845605,-3.189660334629145
Nat West,55.94493842090878,-3.1886397891344482
Bank of Scotland,55.946136224919044,-3.188356241456449
Potter Shop,55.9461083499204,-3.1884514622133864
Baristo,55.94576033603749,-3.188200616092877
Santander,55.945788056456855,-3.1881214035866963
Ballentine Cashmere,55.94922620041804,-3.1931109048341852
Elgin Cashmere,55.94920699443424,-3.193238423933447
The Deacon's House,55.94918144144768,-3.1930935143417973
CC Express,55.938104097408946,-3.2918022024402407
Kissa,55.93806934228857,-3.2916889799130153
Top Tan,55.938043233926315,-3.2916080640906986
vacant,55.93608962925622,-3.2850916022310157
HMR Convenience Store,55.93603623507848,-3.285041808576229
Bell Hair,55.93598300782709,-3.2849760121039275
Community One Stop Shop,55.928576493074054,-3.2791609402125435
Crow bakers,55.92848716618739,-3.2791099805244044
Post Office,55.92843376944198,-3.2790602049680677
vacant,55.92839800543963,-3.2790430212070247
Broomhouse Minimarket,55.92836224143453,-3.2790258374780996
vacant,55.928237316619125,-3.278941694978453
Premier Stores,55.92448378624311,-3.2812986217717826
Soul Cycles,55.94288352117145,-3.2013216898024774
Red Hot & Blue,55.94283024882673,-3.201255995804819
machine expresson,55.94279478593664,-3.2012068644828275
Bombay Bicycle Club,55.942590366778454,-3.2009763812433856
International Bar,55.94232752504411,-3.201208408790865
786 Wholesale & Retailers,55.94249616874934,-3.2014217728550034
vacant,55.94267379485559,-3.201635416991694
vacant,55.94264715877066,-3.201602569935658
Ong Gie,55.94273589363674,-3.2017173957133034
Passorn,55.94278018295149,-3.2017828119309732
no name on fascia,55.9427978362042,-3.2018153809678793
Co-operative Pharmacy,55.94285110824778,-3.20188107567372
vacant,55.94343240953903,-3.203083925173807
Brougham Foot Clinic,55.94325713022357,-3.202630173416687
El Quijote,55.94340639911407,-3.202987050424793
Backtracks,55.94323080692884,-3.2025653122944013
Turkish Doner Inn,55.94320448359947,-3.2025004512598803
Cowan Print,55.94311621817369,-3.2023376031066237
vacant,55.942824472230534,-3.2018482282981857
Glamourize,55.9429132068603,-3.2019630551647214
The Yellow Deli,55.942948669444405,-3.2020121873249425
The Ventoux,55.94370376861592,-3.2029002022972155
My Big Fat Greek Restaurant,55.943668931559316,-3.202787041872167
Real Foods,55.94361628511096,-3.2026573181203375
My-Apartments,55.94356363852401,-3.2025275947195753
Mezbaan,55.94351981834163,-3.2024141566324116
Redbox 2 Go,55.943493338705586,-3.2023653017670233
Nina's Mini Market,55.94345818871492,-3.2022841555107946
Fortune Cookie,55.94332625863031,-3.2019918632216076
Cloisters Bar,55.94328228177875,-3.201894432899431
The Olive Branch,55.95858642124825,-3.1896668062749804
Broughton Place Hair and Beauty,55.95859602246613,-3.189603030444887
Tesco,55.96304274704141,-3.1962113322711336
Angela Carr,55.9635486091448,-3.1950094469364037
Edinburgh School of Lanague,55.963888269237735,-3.1942669865558426
Powderhall Arms,55.96428600906036,-3.1930937624658235
L'Antica,55.964547291896295,-3.1920925396700417
Edinburgh Nursery,55.96459313538068,-3.191997828898804
Broughton Convenience Store,55.964822196858364,-3.1915402870987704
The Edinburgh Nursery,55.96477604396696,-3.1916670297710037
Doggie Style,55.9654192339431,-3.190196902635469
Moriarti,55.96537354653148,-3.190275601905269
The Other Place,55.96253862353063,-3.196307912160387
Caf‚ Piccante,55.95695104240072,-3.187806720521339
Egg,55.957013458950534,-3.187856683295643
Mathers,55.95706689267169,-3.18790637104754
Greggs,55.95712915479358,-3.187972346397276
Ladbrokes,55.95717376005065,-3.1880057469643064
Real Foods,55.95731624975807,-3.1881382490432055
Treacle,55.957369528944156,-3.188203949936834
Firth of Froth,55.957476550499614,-3.188287315052083
vacant,55.95752208222055,-3.188224641741103
Union Gallery,55.957538966842975,-3.1883372792858835
Den of Iniquity,55.95776958511801,-3.1886486748380785
Essential Therapy,55.95904177030434,-3.190898129294662
Villeneuve Wines,55.95779622457435,-3.188681525999285
Smokestack,55.9578493489708,-3.1887632410139695
Artisan Roast,55.95790262781137,-3.1888289436748276
Broughton Property Management,55.95796458039929,-3.1889269471454993
Allan Hair,55.95803536118385,-3.189041239014523
Coco on Broughton,55.95807965706985,-3.189106666901122
The Edinburgh Nursery,55.95810629640023,-3.189139518640819
Asti,55.95813278117679,-3.189188383096804
Rapido,55.95818590522811,-3.1892700995166074
Council of British Pakistanis (Scotland),55.958239029223805,-3.1893518161605336
Barony Bar,55.958292153163875,-3.1894335330285823
Narcissus,55.95834527704832,-3.1895152501207558
Curiouser Curiouser,55.95856768258047,-3.189746319298133
Crombies of Edinburgh,55.95866572024344,-3.1898294156304146
Apple Pharmacy,55.95889664396525,-3.190108803181683
Lamesley bridal,55.958941093940865,-3.1901582207475223
Arthaus,55.95899437201182,-3.190223927184891
The Dragonfly,55.959029993830285,-3.1902570562203465
Cask & Barrel,55.95912803113155,-3.1903401548458277
n/a,55.95616892063018,-3.187846829668618
The Basement,55.957008518019656,-3.188369074147257
Bonsai,55.95711538502158,-3.188468451181881
Something Fishy,55.9571510073368,-3.188501576982452
Chequers,55.957186475182404,-3.188550715128296
Lifestyle Express,55.9572220974745,-3.1885838410657437
Broughton Newsagency,55.957897064509794,-3.189405396382047
Vino,55.957932377401896,-3.1894705488908075
Khushi,55.95797667305931,-3.1895359770891494
vacant,55.9580119858808,-3.1896011298505833
boombarbers,55.95810057701763,-3.1897319869644205
vacant,55.95812706155753,-3.1897808518144317
The Bangkok Bar,55.958144717906485,-3.189813428418173
Paige Conner,55.95818018521253,-3.1898625690280933
New Town Deli,55.958385088480874,-3.190045049472595
vacant,55.95841172755585,-3.1900779021149863
Phoenix,55.95844734941966,-3.190111030511661
Shamoon,55.95850914628738,-3.1902250502250653
Concrete Wardrobe,55.95853578531282,-3.190257903096704
Joey D,55.95857125243543,-3.1903070446111292
Joey D,55.95859804613352,-3.1903238847356494
L'Escargot Bleu,55.958642496025625,-3.1903733021615106
PICKLES OF BROUGHTON STREET,55.95862406632096,-3.1904207892186114
Nom de Plume,55.95872241295162,-3.1904718615587835
Colin Blaikie & Co.,55.958749051908825,-3.1905047147817402
Kathy's Knots,55.95877569085696,-3.190537568049962
The Vapour Lounge,55.95895302569138,-3.19078327932895
Outhouse,55.9573540016465,-3.1870182098053723
Ali & Son Newsagent,55.94484118601905,-3.0944072332582806
Brunstane Bedroom & Kitchen Studio,55.94479641264142,-3.0943899584849515
Primary Colours,55.94476062237846,-3.0943729371591493
Brunstane Bedroom & Kitchen Studio,55.94473381523042,-3.0943561692680284
Eat alias,55.961107942646834,-3.1806776318657297
Tesco Metro,55.961344564603,-3.180364463336957
Leith Army Stores,55.961408211381645,-3.180286307341141
Leith Army Stores,55.96148114770302,-3.1801763963258054
Magnet,55.961581645856654,-3.1800032485522185
City PC Repairs,55.96067345404642,-3.1715979681066973
Ben's Newsagent,55.96077634531763,-3.180587441496287
LB's Takeaway,55.96081212318476,-3.180604549434489
The Village,55.960839071660594,-3.180605370030759
The Village,55.96087484952468,-3.1806224780139436
Massage Therapy Clinic,55.96092843959475,-3.180656146985978
Printosponge limited,55.960964217450886,-3.180673255056484
Vittoria,55.9610359266032,-3.18069145737488
vacant,55.960655425150264,-3.1810162572202585
Twelve triangles,55.96070003228908,-3.1810496529063608
Oddbins,55.960753775738574,-3.1810673085120067
Cheynes,55.93637512684348,-3.2089643533113237
vacant,55.9371027568921,-3.209899522055224
Mary McQueen,55.936969799391036,-3.2069657814530426
Indigo,55.936924258238015,-3.207028399791596
Soprano Ice,55.93686043783632,-3.207122466735449
Bruntsfield News,55.93682387937809,-3.2071853641504737
ooh! ruby shoes,55.93677818126056,-3.207263985752685
Dig In,55.93675076236621,-3.2073111586251764
The Chocolate Tree,55.936723343453984,-3.2073583314310405
Anderson Bain & Co,55.9366778021035,-3.2074209489127026
Lloyds Pharmacy,55.93663226072152,-3.207483566247737
Murray & Murray,55.936494851823255,-3.2077514355555365
Bryony Quate,55.93645844997203,-3.2077983281653544
Links Barber,55.936430873944104,-3.2078615038812694
The Currie Leaf,55.93640345482324,-3.207908675909827
Clementine,55.93637603568451,-3.207955847871759
Sainsbury's Local,55.93593449995023,-3.208998651386863
Montpeliers,55.93587871824478,-3.2091890128065605
McDonald-Greene,55.93584168739767,-3.2092999167564136
Subway,55.93581411060636,-3.209363090397
Gulliver's Toys and Gifts,55.93579535941543,-3.209442547229309
vacant,55.93575848549128,-3.209537447375073
Globetrotter,55.935731065734785,-3.209584617400259
Himalaya Tandoori Restaurant,55.935694977510295,-3.2095995007778715
ACE Property management Ltd.,55.9356587321246,-3.209630387408679
Paton & Finlay,55.93562248673122,-3.2096612739821797
You Rice,55.935586398497385,-3.209676157248203
Delicatessen,55.9355321875583,-3.209706483710077
Inca,55.93549609931881,-3.209721366900564
Falko Konditormeister,55.935451028310304,-3.209735970051876
George Hughes & Son,55.93500992963884,-3.2098182677347418
Acanthus,55.93493806749818,-3.2098160275296124
Maddie and marks,55.93487518812438,-3.2098140673584865
Trinity Factoring Services Ltd.,55.93480332598204,-3.2098118271724694
Everyone's Designs,55.934722323887854,-3.209825309868655
Vivaldi,55.93467756723075,-3.2098079068714687
The Edinburgh Bookshop,55.93464163615847,-3.2098067867912015
,55.93747502998944,-3.206757370736497
Swinton Insurance,55.93734676224838,-3.207009523824273
Meadowberry,55.93731020384664,-3.2070724221280464
Bank of Scotland,55.937264505799725,-3.2071510448411886
Artisan Cheesecake,55.93724622656705,-3.207182493874622
,55.93721880770315,-3.207229667369249
Curiouser and Curiouser,55.93720037159407,-3.207277120258473
Halibut & Herring,55.93716381305705,-3.207340018072998
The Bay Tree Company,55.937127411360954,-3.207386911870131
R.C. Cunning,55.937099835540735,-3.207450088963389
Cuckoo Bakery,55.9370541372552,-3.2075287108058594
All About Eve,55.937026718260036,-3.2075758838225057
Costa,55.93694446116725,-3.2077174024726713
Costcutter,55.93676182400522,-3.208015882470523
Boombarber's,55.93672526509478,-3.2080787788790928
Aristian Roast,55.93668854918263,-3.208157678882846
Moss Green of Edinburgh,55.93667011271946,-3.2082051306815194
Tippi,55.936642693467846,-3.208252302753799
Snapdragon,55.936624413956864,-3.2082837507649717
Rosie Brown,55.93658785491101,-3.20834664669848
S.O.S.,55.93656926137322,-3.208410101946908
Caroline Temple,55.93653270226347,-3.208472997671862
A la Carte,55.93650496887069,-3.2085521766592557
Papilio,55.936486689283896,-3.2085836244174564
Edinburgh Letting Centre,55.936449816014154,-3.2086785270694667
Belquin Hearing Ltd,55.93642223953774,-3.2087417021396507
Albany Lettings,55.93639450597364,-3.2088208807083882
,55.93637606925719,-3.208868331830936
Coco of Bruntsfield,55.93634849268428,-3.2089315066456043
Oddbins,55.936219120761095,-3.2092956698172967
C'est si Bon,55.93619154397084,-3.2093588440713847
Caf‚ Grande,55.93616381001323,-3.2094380217252856
William Christie,55.93611779617426,-3.209548646269431
Chi (incorporating miam-miam),55.93609935917979,-3.209596096705911
Project Coffee,55.9360717822368,-3.2096592705506595
News Plus,55.936053030853905,-3.209738727762844
Greggs,55.936016313887954,-3.2098176248239096
Craig Davidson,55.93599771959821,-3.209881078426459
La Barahtime,55.935970142510314,-3.209944251902267
Royal Bank of Scotland,55.93594240817938,-3.2100234286831633
Osteria Del Tempo Perso,55.93556261639524,-3.210267717125911
JFK,55.940393483908146,-3.204190456006125
Burgh Locks,55.94034825708823,-3.204221072597164
Lee-On,55.940302873789385,-3.2042676943441846
Thrift Shop (Birthlink),55.94023952491698,-3.2043137583675154
vacant,55.94032600180474,-3.203740079130135
Zen Lifestyle,55.940289757873906,-3.203770974877739
Riva Hair Design,55.9401942980665,-3.204344374695523
Drinkmonger,55.94008556580304,-3.204437059757557
Young Antiques,55.94004018242309,-3.2044836809396497
Footworks,55.93999479902568,-3.20453030201321
Miss Dixiebelle,55.939886223140036,-3.2046069810311195
Nordic Outdoor,55.93984083969631,-3.20465360177745
vacant,55.93975936859687,-3.2047151118476718
Kilmour Thomson,55.939723280956756,-3.204730001252853
Velo Ecosse,55.9396782105373,-3.2047446117294682
Walker Plumbing & Heating,55.93962400080248,-3.204774948212586
Harlequin Antiques,55.93957893037739,-3.204789558601195
Davison Kilt Hire & Sales,55.93951558131021,-3.2048356209274975
Hill Lord & Co.,55.939416301116424,-3.204880567383524
Accomodate Edinburgh,55.939362247900796,-3.204894898641744
Salvation Army,55.93929905535088,-3.204924955734638
The Dress Fabric Company,55.939253984906976,-3.2049395658318334
Thai Lemongrass Restaurant,55.93919977512322,-3.2049699017188007
Bruntsfield Chiropractic Clinic,55.939800151127855,-3.2042200718983116
Ideal Computing,55.93771297146888,-3.20631651768596
Aroma,55.93766727389967,-3.206395142105053
Framers,55.937630559055506,-3.206474045618969
Frenchy's,55.9376031404602,-3.20652122008116
Italian Connection,55.937575721847,-3.206568394476721
Stitches,55.93752088456696,-3.206662743067949
Bollywood,55.93734248323036,-3.206529124712856
ALL ABOUT EVE,55.937098580435496,-3.2075781200565134
Driving Test Centre,55.89992534404229,-3.3078538912301045
Hair Tech,55.89991805992125,-3.30769370930615
Sun Luk,55.89754636876421,-3.3042554381326137
Clear Vue,55.897510777519244,-3.3042222583370964
Shop'n'Save,55.93905987914154,-3.220094618453224
Pan Asia,55.93871952700222,-3.2217969296775175
Kim's Mini Meals,55.94370946513276,-3.184695342180263
Pan Pan,55.943208427189006,-3.184471896447437
Vacant,55.943145855126275,-3.1844379636995273
Hair Joy,55.94309226589209,-3.184404305291524
Roots,55.94249303154402,-3.1841138260993715
In Siam,55.942376716176575,-3.1840622434881416
Dagda,55.942162512554496,-3.1839116091046256
Cafe Andamino,55.94191237736244,-3.1837598801247893
Brazillian Sensation,55.941850112690574,-3.183693937715848
Multicultural Advice & Information Service,55.941566659833136,-3.183269015559235
Pakistan Society of Edinburgh,55.941451266482574,-3.183121401807785
Press Coffee,55.942963581732876,-3.184704588445118
Deli Di Rollo,55.942909992570904,-3.184670929831552
Tasty Noodle,55.94284726663206,-3.1846530034214635
Rough Design Partnership,55.94281148920575,-3.184635899909967
Moo Bar,55.94278469461549,-3.1846190707061726
,55.941962736195954,-3.184129663231467
Black Lion Games,55.94175766931779,-3.1839632982880803
Sodaeng,55.941695250923466,-3.1839133617401254
Ebony & Ivory,55.941650644367634,-3.183879979433649
Espresso,55.94158822593728,-3.1838300431593494
Snax Cafe,55.94141939759629,-3.183632765974709
Adcentiv,55.9413484575694,-3.183534539043098
John Redpath,55.96275442887749,-3.1776360499596046
Pilmeny Development Project,55.963581810906355,-3.1766199070085643
The Tourmalet,55.963852859907085,-3.1755227712260936
vacant,55.96392227784124,-3.1757811925595845
Charwood,55.904597252280155,-3.2067277256327493
Bank of Scotland (HBOS),55.90864798905225,-3.209653034140346
Buckstone Newsagent,55.90858573784204,-3.2095871076480074
Allingham & Co. Solicitors,55.90855012081949,-3.2095540046378335
Buckstone Terrace Post Office,55.90850552098015,-3.2095206220097046
Headturner,55.908469746845554,-3.2095035112125654
Breadstix,55.90842530408009,-3.2094541366477656
Boots,55.908371878486015,-3.20940448254562
The Home Hub / Currency King,55.90832727860341,-3.20937110024459
The Buckstone Caf‚,55.908273695902736,-3.2093374383865876
Majestic Wine Warehouse,55.907359019940834,-3.2091490002613217
Sultan,55.95196225925033,-3.304371171153649
Atlantis,55.95194310788725,-3.304482632868345
Lloyds,55.95192395642384,-3.3045940944715784
The Co-operative Food,55.95191378727602,-3.304705858135794
BP Connect,55.984083376052226,-3.4082916080515164
McDonalds,55.983992425253106,-3.4068136685946127
Mr. Hong's,55.898813608273656,-3.160616394496961
Eastside Bikes,55.95719462422729,-3.168914122043492
Scott Parker Studio,55.95719538375273,-3.16883406003961
Armchair Theatre Video,55.95717741801573,-3.168833518501998
vacant,55.95720649301656,-3.1686101571253946
Gung Ho,55.95720740420403,-3.16851408268047
Abbey Saleroom,55.95719963613429,-3.1683857127466903
KBC Pilates,55.95720039531655,-3.16830565071739
CKH,55.95719217157637,-3.1682253180562023
KB Stores,55.95718485860834,-3.1680489110233783
Asylum Tattoo Parlour,55.95718561757168,-3.167968849014971
Gents Haircut,55.95717754538749,-3.167872504053618
Aikman Bell,55.95716932136435,-3.167792171527778
Safari Lounge,55.957170080160786,-3.1677121095441194
Calder Park Supermarket,55.91970480331187,-3.295766553670857
Mario's Takeaway,55.919709178827226,-3.295350652912936
Calder Crossway Sub Post Office,55.919701374113785,-3.295238379994268
Taste of China,55.91970322471022,-3.295062421974182
The Wee Roll Shop,55.91970406580733,-3.2949824410491475
Calder Pharmacy (Vantage),55.91970473864763,-3.294918456306055
Scotmid,55.924634424623584,-3.2763104109521866
D. & A. Mackinnon Pharmacy,55.924587522104986,-3.276500914239093
OZ Caf‚,55.92443666890352,-3.2771841135750686
vacant,55.92442685676284,-3.2772638092900888
Tan Stand,55.92440822794956,-3.2773272111983456
William Hill,55.92438011872479,-3.277438312167444
vacant,55.92435217535893,-3.2775334147653257
Calder Road Food Store (Premier),55.92433321447238,-3.2776288128227953
Halo's Hair design,55.92429612242542,-3.2777396177330327
Costcutter,55.922757829539705,-3.2865386659134477
Lloyds Pharmacy,55.92270410152261,-3.286520882600022
Artful Dodger,55.922605795117754,-3.2864696163164298
Royal China,55.92256272062994,-3.2862921566235475
Aldos Takeaway,55.922491027524465,-3.2862737785914287
Golden Shell,55.92244477812667,-3.286400269663533
Angus Mclennan & Co. Solicitors,55.922443942574816,-3.2864802565022444
Ladbrokes,55.92242464053696,-3.2866076401298097
A. & J. Kelly,55.92241448803853,-3.286719323957237
Sighthill General Store,55.9224045025991,-3.2868150103758813
TSB,55.92258432021031,-3.286804966993699
R.S. McColl,55.9226470307082,-3.286823048346999
P Campbell Quality Meats,55.92269177615807,-3.286840534340927
Enterprise Rent-a-car,55.922726201695305,-3.2869857025105893
S.H.C. Pharmacy,55.92347312998667,-3.286018255130222
Flyn Motor Company,55.92329740447334,-3.287356708170578
News R Us,55.942869003838766,-3.217444471456001
CiAO (City Architects Office),55.94359984950057,-3.218956472687311
vacant,55.9435733764759,-3.218907606527399
The Collective Gallery,55.95497058692903,-3.183517809719264
Pivo,55.95416062940524,-3.187384921492796
TBC Coffee Shop,55.947757166033796,-3.2046432255391912
Traverse Theatre Caf‚ Bar,55.94768530390589,-3.204640993844815
vacant,55.94756251894191,-3.204332932245227
The White Light Company,55.956719571759756,-3.162140722259234
SuSu Barbers,55.956651181754154,-3.1617702876070526
John White,55.95715301573527,-3.1619134583861164
Calm Blue,55.92775719046336,-3.209048057641944
Fanboy,55.94718339219556,-3.1915748863204128
Bobby's Caf‚,55.94721003094774,-3.191607730414148
Little Ox Gallery,55.94716542657621,-3.1915743344581142
vacant,55.947272291234086,-3.191673694692343
Deadhead Comics,55.9472990848113,-3.191690530744083
Oz Bar,55.947511419862494,-3.1920333275428785
Joys,55.9476585499458,-3.192614320189973
Hannah Zakari,55.9476413591682,-3.1925337262288216
Creepy Wee Shop in the Graveyard,55.946780094711976,-3.1914664217362243
Greyfriars Bobby,55.94683383675269,-3.191484085146168
Joyce Forsyth,55.94702944568071,-3.191698260110919
Tang's,55.947073895162156,-3.191747664182211
Transreal Fiction,55.94714513818391,-3.19181390443554
Venus Flytrap Tattoo,55.94720739835955,-3.191879868931231
Still Life,55.947251847764996,-3.1919292734390057
Avizandum,55.94728715945185,-3.1919944102135887
Avizandum,55.94730466038594,-3.19204298683131
Maple Arts,55.94734864500359,-3.1921404162615974
D'Espresso Bistro,55.94745847374625,-3.2112793629417387
Jade Garden,55.96226126803552,-3.1989585300383023
Gifts of Scotland,55.95269753957973,-3.1750404927542597
Pegasus Sound & Light,55.95260557305617,-3.175261917755408
vacant,55.95254055469994,-3.1754841584874622
Kilderkin,55.95218422640126,-3.177042821433797
Clarinda's Tea Room,55.952128187701334,-3.1772653294016986
The Genuine Article,55.95199768426757,-3.1777578284683083
Canongate Stores,55.95193204910595,-3.1780441021917776
I Love Edinburgh,55.95181220995625,-3.178360757711161
Neanie Scott,55.9517654580455,-3.178551514378148
The Royal Mile Factory Outlet,55.95174672656646,-3.1786310189345293
Ye Olde Christmas Shoppe,55.95170849751178,-3.17887007821265
Tolbooth Tavern,55.951436039688254,-3.1801109375287284
Hamilton and Young,55.951425523198026,-3.180270763758047
Hamilton and Young,55.95139734760938,-3.1803980232246176
vacant,55.95134145630486,-3.1806045118462842
Prestige Scotland,55.951258616140564,-3.1808101794246606
Nicolson Highlandwear,55.951230133070844,-3.180969457685415
vacant,55.9512018032815,-3.1811127258526803
Fudge House of Edinburgh,55.95118245616373,-3.1812562673923876
Caf‚ Truva,55.95094406165617,-3.182690305225335
Has Beans Coffee House,55.95086820239065,-3.183104366383021
Cranachan & Crowdie,55.95084885296171,-3.1832479056650564
Wedgewood,55.95083879375233,-3.1833596994879065
Wonders of Nature,55.95077905180501,-3.183966422515043
The Scottish Grocer,55.95076016298429,-3.1840619320510246
Pink,55.95201492878235,-3.1768935497631934
Holyrood Cashmere,55.95170778410374,-3.1780052608780363
Unknown Pleasures,55.951642301493045,-3.178275521987264
The Best Fae Scotland,55.95162326393436,-3.1783870465215407
Starbucks,55.95157620567014,-3.178609822282688
Cafe Vivo,55.95143594791435,-3.179182086508193
The Wyrd Shop,55.95126751246027,-3.1798816059902193
Celtic Design,55.95126751246027,-3.1798816059902193
Sugarhouse Sandwich,55.95126751246027,-3.1798816059902193
Bene's Fish & Chips,55.95123903058765,-3.180040884985875
Cannongate Jerseys and Crafts,55.95123903058765,-3.180040884985875
Cannongate Jerseys and Crafts,55.95123903058765,-3.180040884985875
Simply Scottish,55.9511561913598,-3.180246553240934
Cadenhead's Whisky Shop,55.9511561913598,-3.180246553240934
Mama Said,55.95084225991626,-3.182062639967454
Macraes of Edinburgh,55.95081392886402,-3.182205905890227
The Canon's Gait,55.950785136704035,-3.1823972006357075
Pancho Villa's,55.95070943212945,-3.1827952510442294
Table Top Caf‚,55.95066981135506,-3.1831783863654532
Tribal Body Jewellery,55.95066935009058,-3.183226415241754
Mini Bakehouse,55.950659598443394,-3.1833061893127135
Teasurer 1874,55.95064938539947,-3.183433992190871
White Horse,55.95063917222328,-3.1835617949999273
focus,55.95062926654676,-3.1836575785278507
Royal Mile Gallery,55.950619822265516,-3.183705333200567
Le Caf‚ Royal,55.950610070309224,-3.1837851070451433
Solo Menswear,55.95060031830143,-3.183864880848926
Ragamuffin,55.95058173726269,-3.1839283708269632
Cross & Corner,55.96237642839363,-3.197280077229059
Bluebird Cafe,55.962436039608896,-3.197618321508147
BP,55.96234045152439,-3.198208077888276
Napier,55.96262847049759,-3.1990820211716873
EARTHY FOODS & GOODS LTD,55.96285594294896,-3.1997138127575995
Beautiful U,55.902037061876264,-3.1560903443812043
Castello Coffee Company,55.95134412649763,-3.2026246853781126
Virgin Money,55.951442311802296,-3.2026917885717143
Castle Thai Spa,55.951469103814,-3.202708634062014
Costa Coffee,55.95156744536708,-3.2027597278061712
Strada,55.951612046601035,-3.2027931404403933
vacant,55.95163883859751,-3.202809986075861
TSB,55.9517102318058,-3.2028602445321095
Day Today,55.95185364343372,-3.2028967220083224
Golden Dragon,55.951889418179796,-3.2029138464276734
H. Robertson,55.951943002133014,-3.2029475381346955
The Amber Rose,55.951688424609756,-3.2041727802124687
The Treasure Trove (Royal Edinburgh Repository & Self Aid Society),55.95200556884135,-3.2029815085578615
Pret a Manger,55.95206813553918,-3.2030154790919063
Fired Earth,55.952112736696975,-3.2030488924586065
Harvey Jones Kitchens,55.95220209532676,-3.2030997092824802
Chaophraya,55.9522466964598,-3.2031331228632687
High & Mighty,55.95124929684725,-3.2031342120934614
Ted & Muffy,55.951320689927336,-3.203184470629682
Trailfinders,55.95148175427708,-3.203253525948552
T.G.I. Fridays,55.95187480663599,-3.203489928089217
Pink,55.95215202108506,-3.203626650011385
Pink,55.95210742008731,-3.2035932359481634
Wagamama,55.94867602269354,-3.206241088770457
Castle Terrace,55.94695061403411,-3.202584549709045
Il Castello Ristorante & Pizzeria,55.946787361348896,-3.202739616248669
Castle Gift Shop,55.94902606121168,-3.195218551913982
Mackie's of Scotland,55.94901676778705,-3.195250292867548
Mackie's of Scotland,55.94900700838201,-3.1953300604136974
Contini Royal Mile Caf‚,55.94874896460912,-3.1959946775334256
Sodexho,55.94812070683921,-3.200539095973791
vacant,55.94296295657429,-3.224284209400626
Sheep's Heid,55.94198522657706,-3.1485385732644
Meadow News,55.93889615135681,-3.1815866341452628
Hewat's,55.938851390607816,-3.181569261716947
Victoria Bar,55.938717415368124,-3.1814851352657745
Feet First,55.93863703019412,-3.181434659676557
Majestic Wines,55.938513419058616,-3.1812067660381103
Lorraine Graham Flowers,55.93839602801892,-3.1812672296013784
Celadon Thai Restaurant,55.93833360846036,-3.1812173017746765
True Thai,55.93826205255433,-3.1811831051987944
Bygones,55.93813721334209,-3.18108325032741
Allan K.L Jackson,55.9381104182269,-3.1810664256413244
vacant,55.93772783762436,-3.180670566137286
vacant,55.93772783762436,-3.180670566137286
Sambuca,55.937566759751746,-3.180601629638365
Sambuca,55.93752199884674,-3.180584258960416
Vintage & Reclaimed,55.93573447251552,-3.1795853990354157
VACANT,55.93570798368447,-3.1795365694931825
Hair by Colours,55.93570752391927,-3.1795845799207028
Chairwoman,55.935689864700365,-3.179552026908284
KM Contracts,55.93566306935632,-3.1795352043606195
Bella Roma Takeaway,55.93514528088873,-3.179183300971727
Old Bell Inn,55.934940206865996,-3.1790169917888407
New Bell Restaurant,55.934984814836945,-3.179050362646667
The Bright Green Initiative,55.9382492322905,-3.181582944611826
J SAINSBURY PLC,55.937971070808246,-3.1815424565701105
vacant,55.937883698239666,-3.181283651647637
"Lipstick, Lashes and Locks",55.937526839383224,-3.1810166461741565
wonderful world of parties,55.937526839383224,-3.1810166461741565
Patrick Buckley Antiques,55.937526839383224,-3.1810166461741565
Wm. E Scott,55.937402000010735,-3.1809167937606757
Scotch Hop,55.93731263171537,-3.180866047742785
Cotterell Light Centres,55.9370513616442,-3.1809381407401736
No.1 Grange Road,55.93674916609595,-3.180592764571047
Broscolo Bathrooms,55.93622132452055,-3.180352589658355
Tesco Express,55.936042587383184,-3.1802511036131946
The Foam Centre,55.9357484528243,-3.1800020359071346
vacant,55.935676896531575,-3.1799678439107217
Baxters The Barber,55.93565010124548,-3.1799510210825552
Grange Take-Away,55.93562345925928,-3.1799181948388844
Pataka Indian and Bengali,55.93556940877003,-3.179932559572409
Pataka,55.9355342438005,-3.17985145009397
The Bike Station,55.934725019443135,-3.17990688725078
Pufferfish,55.93460916193435,-3.1798073188047544
Forsyth's Tea Room,55.95095029228258,-3.185781280973061
The Jazz Bar,55.948126952357086,-3.1869119803646404
Richer Sounds,55.948098615714514,-3.18705523266834
Revolution,55.94736195956628,-3.1907637101816193
Nando's,55.9473220046122,-3.1911788204045943
The Tower,55.947324480905166,-3.1909226892151508
The Radiator Store,55.973035678004734,-3.19424442029823
The Wrap Place,55.94465892304389,-3.1859412358225754
Nile Valley Caf‚,55.94465892304389,-3.1859412358225754
Jollof Hub,55.94465892304389,-3.1859412358225754
Buffalo Grill,55.94456011189424,-3.185938215219278
Indigo Yard,55.9510862104234,-3.209695113797851
SYGN,55.95119557522686,-3.209538378933811
Royal Bank of Scotland,55.931109656777664,-3.2521295310521268
The Ugly Duckling,55.932244022382555,-3.209652017833208
Holly Blue Nails & Beauty,55.932253633766045,-3.2095882902849513
Time and Tide,55.93225473375595,-3.209476277141465
vacant,55.93226513065224,-3.2093325401161907
Barclays,55.93228482434442,-3.209157079078897
Dermal Clinic,55.93228592394269,-3.209045065827617
James Erskine,55.93203016443402,-3.2094692792366843
Intelligent Hair Growth,55.932030792948666,-3.209405272092657
Barbers 3-2-1,55.942826410342064,-3.1830832807461475
Letslet,55.942790786413354,-3.1830501723121585
TSB,55.942594854638,-3.182868077017707
Post Office,55.94255923064841,-3.1828349689809867
Anteaques,55.942488136323945,-3.18275274683788
Browns Optician,55.94243470028734,-3.1827030851024936
Polish Shop,55.94237243505156,-3.1826371434820078
Starlight Chinese Supermarket,55.94230118693283,-3.1825709282771437
Marmaris Restaurant,55.94224790446945,-3.182505260878551
Marmaris Restaurant,55.94221212673173,-3.182488159614841
Stitch Master,55.94209657882957,-3.1823565517842143
Bailey's Barber,55.94206095469574,-3.18232344464662
best-one,55.942034313399986,-3.182290611299249
Barnardo's,55.94199868924759,-3.182257504275855
Apothecary,55.94195423584924,-3.182208117564545
The Paper Gallery,55.941918611673614,-3.182175010685908
Tikka Mahal,55.941882987488604,-3.182141903868387
vacant,55.94184736329423,-3.1821087971119786
Fusion,55.941802909833605,-3.182059410765171
Vogue Video,55.941767285615995,-3.1820263041535184
Desi Cuisine,55.941731661389,-3.1819931976029783
Gordon Black,55.9417050200016,-3.1819603647628396
The Wee Boulangerie,55.94166056647892,-3.181910978768647
Record Shak,55.94162494221948,-3.1818778724159444
Puff and Stuff,55.94159830080016,-3.1818450397458578
Bonningtons Delicatessen,55.941571659371775,-3.1818122071209807
The Grapes,55.9415183764878,-3.1817465420068634
Mobile Phone and Computer Repair Centre,55.94147376933207,-3.181713162337753
Ruby Rouge,55.94301812416853,-3.1827689037167954
Tanjore,55.94293804696415,-3.1826864068799177
USA Nails,55.94286679888298,-3.1826201906053866
Welch's Quality Fish,55.94283117482835,-3.182587082559798
Acuremedy,55.942786567918915,-3.18255370077744
McSorleys,55.942733131805106,-3.182504038927376
Capital Newsagents,55.94269766136204,-3.1824549247625837
Kampong Ah Lee,55.94265305441468,-3.182421543248627
William Hill,55.94260860109123,-3.182372155507107
First Class Butchers,55.94256399412004,-3.1823387741660163
Filament Coffee,55.94251954076185,-3.182289386633613
Evas Hair and Salon,55.942466258150205,-3.1822237192458185
Easylet,55.9424218047441,-3.1821743319705114
Newington Pharmacy,55.94214594745746,-3.1818937431860004
Cascade Juggling,55.94208368177779,-3.181827803355153
Flip,55.94203024535708,-3.181778143413523
Taksim,55.940083187036755,-3.1805501154225886
Drum Central,55.94196797961271,-3.181712203966474
Bottle Baron,55.94189688451776,-3.1816299851375973
Lu's Tailor,55.94185227733401,-3.181596605270392
W. Armstrong & Son,55.94180782366559,-3.181547219501096
vacant,55.9582097867355,-3.2827332154784825
Apex Building Services,55.942900633196814,-3.2807859893330322
Sher,55.94293656325218,-3.2807871754714024
Platform 5,55.9461399448972,-3.218331736330796
Lothian Buses Travel Shop,55.94602079462818,-3.218568181383707
The Station Takeaway,55.946026926887534,-3.2188565985961533
Nicola Bald Photography,55.94601968619525,-3.218680233881417
La Bruschetta,55.9460187360288,-3.2187762788731926
Vacant,55.946025818192304,-3.2189686510995608
BP / Spar / Subway,55.937616446567944,-3.402922578464305
McDonalds,55.937703845536625,-3.402349396992545
Greggs,55.93568967411255,-3.4024687149332
Best-One,55.91183645369974,-3.2765457956429276
Indian Caverlry Club,55.947901627785,-3.2137272131048245
Sports Warehouse,55.97626486818954,-3.1751941937349977
The Water of Leith Bistro,55.975957694793145,-3.1772520703414147
Bruce Stevenson,55.975631660382504,-3.178460036029806
Andrew Houston,55.96001700515714,-3.1894704281855355
Cutie House,55.950738412594326,-3.190979468800881
The Milkman,55.95071208321864,-3.190914602918795
Underground Solu'shn,55.95069504610764,-3.190817993741032
Malt Shovel,55.95067862783011,-3.19065734630454
Ecco Vino,55.95068048435936,-3.1904652312616104
vacant,55.9506814125117,-3.190369173731672
Stills Gallery,55.950691478070304,-3.1902573822688485
Gurka Caf‚,55.95070200748879,-3.1900975619507252
Route 1,55.95070262607446,-3.190033523553995
Cookie,55.95069256071855,-3.190145315109833
Lava,55.950713464441925,-3.1898416839153025
Eden,55.95072368412478,-3.1897138826066977
Viva Mexico,55.950725230028524,-3.1895537864984354
The Frayed Hen,55.950717174659594,-3.189457453348154
Pie in the Sky,55.95071841113265,-3.1893293764723736
D.L. Cavanagh,55.95071020104867,-3.189249052990438
Whiplash Trash,55.950702299967844,-3.1891367103329613
Forever Scotland,55.95069424427221,-3.1890403773217173
Enchantment,55.950686343000726,-3.1889280347503277
La Lacanda,55.950677823673914,-3.1888797306083894
Lailas,55.95066093944192,-3.1887671127978705
Southern Cross Caf‚,55.95065350130043,-3.1886067416133557
Paper Rack,55.95060997725394,-3.1884612790875417
Scotsmans Lounge,55.95036154674667,-3.188133382896871
Collective Gallery,55.95050794206734,-3.189723279281153
Crew,55.9505014326152,-3.189466851447839
Do You Do Voodoo,55.95050251454223,-3.189354784805591
Whisky World,55.9504944590148,-3.189258452248129
Mama Said Food,55.950486557939534,-3.18914611021422
Old Town Context,55.95047896578144,-3.1890017491985656
Arcade Bar,55.95045356231444,-3.1888408280612937
Swish,55.95042800416933,-3.1886959166260818
Miss Katie Cupcakes,55.95039361748611,-3.1885347206345016
The Baked Potato Shop,55.95034002948591,-3.188501050155581
Tesco,55.91147737267636,-3.2386819697681934
Sugar & Spice,55.90950041714341,-3.2333237719443133
vacant,55.909483252608254,-3.2332432397707436
Harlequin Hair Studio,55.909456945124305,-3.2331784148619884
Colinton Mains Sub Post Office,55.909439620332876,-3.233113875183092
Colinton Mains Pharmacy,55.90941347293186,-3.233033058103134
The Tan Stand,55.909387485616506,-3.2329362488105198
U Save,55.90936133809768,-3.2328554319573493
Chiropractic Health,55.93387922214059,-3.2105833929533496
George Hardie & Son,55.933851644700994,-3.2106465624989458
Spektakular,55.93383304999559,-3.2107100121747485
La Quintia,55.933796332419085,-3.210788903826235
Senior Service,55.93376891218958,-3.2108360705961267
bia bistrot,55.93375016006458,-3.2109155225312214
Jason Hall Hairdressing,55.928057310703906,-3.2295598943284043
The Zone,55.92802074090244,-3.229622756306487
The Kilted Pig,55.9279204933105,-3.229763626193256
just Giles Too,55.92786579821401,-3.2298419185480833
Tesco Metro,55.93419204603323,-3.2107532264496674
Charlie Miller hairdressing,55.934127278886,-3.210943296522864
Starbucks,55.93408126371463,-3.2110539134941747
Craiglockhart Carpet Centre,55.92858357817711,-3.2290483886173256
Tesco Express,55.92682228071817,-3.232657675563966
W. T. Dunbar & Sons,55.92673085224141,-3.2328148179794782
Western Autos-SEAT/Suzuki,55.92423382826371,-3.236304313469832
Ten,55.92412523288796,-3.2363808728594257
vacant,55.92407983756749,-3.2364274376332647
The Sitting Room,55.92399835082633,-3.2364888563120098
Good World,55.923916703418946,-3.236566273016235
The Craiglockhart NHS Plus Dental Clinic,55.92384419930305,-3.2366279772589484
GB Tailoring,55.923753569115036,-3.236705107240474
Craiglockhart Post Office,55.92371715636693,-3.23675195733082
Iain Gaul Architects,55.94625568481069,-3.235580930381254
KD Media,55.9463005981342,-3.235582360923175
Murrayfield Beauty Therapy & Podiatry,55.94634583255536,-3.235551776404317
Atelier 16,55.94645474831285,-3.2354431565992137
Bank of Scotland,55.95876103439465,-3.2259362611829054
Waitrose,55.959075452977885,-3.2241361820717462
vacant,55.95938014629814,-3.2187797728400214
G Alonzi,55.95934437388133,-3.218762630411557
CBG Glazing,55.95930875984854,-3.218729475032482
Taylor Physiotherapy,55.959264163103946,-3.218696037377043
Independent Financial Advisor,55.95921058364704,-3.218662317469891
Ruth Ball,55.95917481121208,-3.2186451752267278
Murrayhead Organics,55.95818109484048,-3.217364579369075
Franco's,55.959151460828764,-3.214639968439184
St. Columba's Wardrobe,55.9591676897383,-3.214816673668573
Northwood,55.95917588304185,-3.214897019862086
Crombie Property Management,55.95918990062993,-3.215297906677964
Dream Hairdressing,55.95919809361906,-3.215378253014731
Raeburn Fine Wines,55.95921447943965,-3.2155389457879293
Appelation Wines,55.95945137432548,-3.2188460838753414
Vincent,55.95944159959248,-3.218925866685312
Bobs,55.95943166638515,-3.219021662486194
Anderson Evans,55.959019401110766,-3.221635627707789
Boots,55.958902079325576,-3.2225929993312845
Connect,55.95883459191256,-3.223055386825151
Nemo's World,55.956748872110104,-3.165697326653939
vacant,55.92079592059216,-3.2124477584910887
D.R.M. Residential,55.923614111526476,-3.2100392618457594
The Hermitage,55.92471504027955,-3.209561457260234
The Gentleman's Barber,55.92463372382543,-3.2096069347516876
Raymond,55.924561390137754,-3.2096526919329103
Royal Bank of Scotland,55.92448007364964,-3.20969816905749
Floored Ltd,55.9238208727353,-3.2100297025119824
Brian Kelly,55.923784784410785,-3.2100445810682614
Wild Wood,55.92375767886766,-3.210059739561074
Cash for Clothes,55.92372159053939,-3.210074618066016
Joelle Ried Interiors,55.923685502209224,-3.210089496543757
DRM Property Lettings,55.92364043109394,-3.210104095021383
The Hill Station,55.92242966222882,-3.210786482264007
New Xi'an,55.92240239930398,-3.210817637533447
Harmonious & Healthy Chinese Clinic,55.92236631088186,-3.210832514831571
Mortgage Specialist,55.922330222457866,-3.2108473921025
Henderson Wines,55.92212204541941,-3.2110009260857835
Wright of Comiston,55.92206783409331,-3.2110312404473436
JB Nursing and Staff Employment,55.92201362275968,-3.211061554725247
2's Company,55.92196855152507,-3.211076151472385
JB Agency,55.92194144585356,-3.211091308552614
Thai Healing Massage,55.921914340180166,-3.2111064656119273
Marie Delices,55.921878094392575,-3.2111373400540177
Edinburgh News,55.92179677734966,-3.2111828110003175
LA Hair,55.92172460041351,-3.211212564441549
vacant,55.92168835459938,-3.2112434386359334
Braidburn Drycleaners,55.921643283342384,-3.2112580350548314
Abacus Asset Finance,55.92084288180579,-3.212241197846189
Shell + Select Shop,55.91807886768964,-3.212794951887254
Pagan Osborne,55.92493630961688,-3.2099044298753503
Danielle Carr Hairdressing,55.924873115786234,-3.2099344679656006
Leaf and Bean,55.92483687029404,-3.2099653458187127
Lindsay & Gilmour,55.92477367644832,-3.209995383735011
Abdul's,55.924710325402394,-3.2100414203213044
Homestyle,55.924638148755946,-3.2100711780428015
Moi,55.92460190322953,-3.210102055584121
Dressmaking Studio 2,55.92455683211786,-3.2101166543764545
Vino Wines,55.92448449824464,-3.210162410516968
Comiston Fry,55.92418665148674,-3.2102971577102997
Julie's,55.92415954591434,-3.2103123161792304
Blackbird Studios,55.92413244034006,-3.210327474627244
Caroline Cleland,55.92410533476389,-3.2103426330543394
n/a,55.922686544753766,-3.211162558092755
Craiglea Clocks,55.9226502989541,-3.211193433085889
Comiston Store,55.92260522770804,-3.2112080299084855
LA Hair Solutions,55.92237025924993,-3.2113447244726303
no name on fascia,55.92233401340462,-3.211375599047866
Strandz,55.9222979249172,-3.211390475801253
Eos Beauty,55.92226183642788,-3.211405352527444
Animac Veterinary Group,55.92105074547023,-3.2121196699855625
Taylor Associates,55.92101465689087,-3.2121345455717694
Greenbank,55.92097841084794,-3.212165418347508
One 36 computing,55.92093333948261,-3.2121800134398604
Morningside School of Music,55.92087897039827,-3.2122263224227745
Diana Alterations,55.9208067932114,-3.2122560732424112
LA Hair Solutions,55.920752581577574,-3.2122863848472463
Giuliano's,55.97636176075611,-3.17067810789302
Ladylux,55.97641337492357,-3.170920041168024
Diner 7,55.9764217489208,-3.170984393938097
Istanbul Palace,55.976438801269936,-3.171081058887279
Cameo Bar and Grill,55.97649817934769,-3.1714514275903793
Cashel Travel,55.97707820934306,-3.174706055201585
Graham Tiso,55.97696109708249,-3.1756800396135243
Relish,55.976396170254205,-3.170839396672047
LGBT Youth Scotland,55.97711184991734,-3.174947453439514
Cafe Tartine,55.976912908379234,-3.1722491976017566
THE KITCHIN RESTAURANT LTD,55.976956451029196,-3.1723947413034845
I.S. Edinburgh,55.9770409441052,-3.172958179477122
Wolf & Water,55.977066672749096,-3.173087159940541
Bistro Provence,55.97710899428248,-3.1733608699598577
Mya,55.977168518031725,-3.1737152278566074
OKA,55.97720277093383,-3.1738925432807794
vacant,55.97724570116609,-3.1741021725077583
Britannia Spice,55.97825788942391,-3.1800783800670565
Street Bar,55.947489126467836,-3.2081577732891886
vacant,55.974346492507905,-3.16715602747582
Suruchi Too,55.97243577866729,-3.1687168329471618
vacant,55.97137277849435,-3.1699505812750117
Allan Breck Lounge,55.97113542217569,-3.170343984640368
Tax Plan,55.97082513662678,-3.170847338532824
The Boneyard,55.97077946146394,-3.1709260716611336
Carolyn designer florist,55.97072495561436,-3.1709885152182924
Afreen fashion,55.97067928036221,-3.171067247977179
Hillhead Management Services,55.97660372932231,-3.1660061184331294
Post Office,55.97628751066794,-3.166188901273402
Bishop Newsagents,55.97518371782825,-3.166988951641874
Fazeli's,55.975147483048595,-3.167019909197931
Beauty@Beba,55.97511124826119,-3.167050866696463
Printworks Coffee Company,55.974966309034215,-3.1671746961153646
Nobles Bar,55.974911653344876,-3.1672531713653207
Rocksalt,55.974839183645955,-3.1673150854964645
The Constitution,55.97476610693309,-3.1674410780635585
Cascal,55.97466714386302,-3.1674541208231908
Port o' Leith,55.97460396042548,-3.1674842656360593
Hugh Muirhead & Son Ltd,55.973862813434216,-3.1679426529898933
vacant,55.97334714708541,-3.168311679355463
vacant,55.97077443787279,-3.171454665544546
Jens Den,55.96467319672484,-3.2685768644935287
Davidsons Mains Post Office,55.96508630412841,-3.2694715088360646
Delicious,55.96515634928765,-3.2696500281043472
Mains Electrical,55.965119759143036,-3.2697129115853354
The Weaver's,55.90001873518089,-3.307521166282917
The Co-operative Food,55.90018160843567,-3.307414690033146
Corstorphine Inn,55.940547010607425,-3.2833179849925025
D&S McLean Newsagents,55.940498262500334,-3.2836846105450506
KRD Property Maintenance,55.94064064823956,-3.283817404488034
Corstorphine Footcare,55.940630998496175,-3.2838811267929824
Barocco,55.940512862037366,-3.284869859491745
John Brash,55.944759543671076,-3.250280338190543
Lloyds Pharmacy,55.94474974874325,-3.250360082620468
Corey's,55.94474909885711,-3.250424109756747
vacant,55.94473930383649,-3.250503854127582
Asha,55.94472967125977,-3.250567591682662
Hui,55.94471987614663,-3.250647335976053
Emma Wallace,55.94471008098204,-3.250727080228461
Prego Superstore,55.94462289779678,-3.251348736302469
Carphone Warehouse,55.942059179686154,-3.266572497690161
Rocco Beauty,55.94497338230637,-3.251344029417777
Kean Kennedy & Partners,55.94494594667183,-3.2513911807681253
Cocobean Caf‚,55.94490936579799,-3.2514540491315667
Salon La Greca,55.94489875698416,-3.2516138277544107
Snovolution,55.944879328002095,-3.251757309616482
Best-One,55.9323376693045,-3.2283349070168104
Movement,55.94819798506186,-3.1916540932311417
Opium,55.94821734422869,-3.1915105680684537
Sneaky Pete's,55.94821780870827,-3.1914625423711875
Brew Dog,55.94842825727053,-3.189211116309618
Crescent Print Ltd,55.94896873270467,-3.1844075865326738
Boosh,55.9489967585042,-3.1842963469065544
Arika,55.94901626300198,-3.1841368060660877
Cowgate Newsagents,55.94902616903553,-3.1840410266422263
Ksi,55.949044903977075,-3.1839615303035584
Specrum,55.94906410037899,-3.1838340070101228
OX 184,55.948698644758906,-3.1881945410753527
Zara,55.94911687158241,-3.1858213137219726
Pilgrim Bar,55.948714382719395,-3.1865616443600775
Bar Salsa,55.94774371516801,-3.194026094035873
Mr. Wood's Fossils,55.94773597354466,-3.193897750712174
vacant,55.94772792153885,-3.1938014241386923
Central Superstore,55.94772885225947,-3.1937053740342223
Fabhatrix,55.94772080010302,-3.193609047516248
Maddie & Mark's Shoes,55.95749455973634,-3.2500342231747403
Abinger's Sandwich Bar,55.955754558733936,-3.2585469997342056
Preston Hair,55.95578101578596,-3.2585959081759484
Mel Mackey,55.955807309252606,-3.2586608279803544
Corner Shop,55.9558246201129,-3.258725456302374
Press-tige Delux Dry Cleaners,55.95752935293597,-3.250147465894851
McColl's,55.95632380352328,-3.1381200072493445
EH7 Hair,55.95644897340477,-3.138187747396017
I & L Fraser,55.95648475735179,-3.1382048143362273
Royal Bank of Scotland,55.9562076165674,-3.1380525311756733
HALFORDS LTD,55.968193320719095,-3.14202527078034
HALFORDS LTD,55.96818641568238,-3.1418007668330628
BENSONS BED CENTRES,55.968180252098996,-3.141496177504947
ARCHERS SLEEPCENTRE,55.968173197758716,-3.141287690804416
Sue Ryder,55.96860452718178,-3.141284369661802
McDonalds,55.96868426456967,-3.142376191084795
vacant,55.96063844409381,-3.1427958674619547
A.Q.Q.A Stores,55.960612089331526,-3.142731017307477
Maysym,55.96054126531123,-3.1426168017379323
Dino's,55.96048811010269,-3.1425351438119895
CYHD,55.960443937785854,-3.142453750802326
Umar Newsagents,55.96039078246662,-3.1423720933051458
Day-Today Express,55.95998456201318,-3.138691986022696
Portobello Private Hire,55.95995864900421,-3.1385790985911592
Co-operative Pharmacy,55.95994142292837,-3.138498502484747
Co-operative Pharmacy,55.95991550974091,-3.1383856153060723
vacant,55.97679301984182,-3.1968761690175462
2H Architects,55.977586726442034,-3.197493628672177
News Express,55.977559933863674,-3.19747677517051
Sobo,55.97752400288043,-3.1974756647150464
Physis,55.977317866681986,-3.197421218003028
MDC Flexiclean,55.977273108598965,-3.197403809481944
NaturaLaser,55.97723733325957,-3.1973866785916214
AFAR Exhibition Services Ltd.,55.9771835924241,-3.1973689925624864
Morris Engineering Design Services,55.97713867869047,-3.1973676046380746
Yuu Beauty,55.97691473256635,-3.1972965835495852
vacant,55.976860836082174,-3.197294918158276
NaturaWhite,55.97709392059798,-3.197350196262207
Facts & Figures,55.97680725085837,-3.1972612120979234
Pentland Medical,55.97674452725181,-3.1972432488955502
Callanetics Studio,55.92235954539823,-3.2115204199180662
JD Salon,55.92234946089682,-3.2116321241264187
BP + Costcutter + Costa Coffee,55.956762943443835,-3.2379498627714303
Sainsbury,55.95744788489167,-3.2413193329117083
James Borthwick,55.958232389342044,-3.2266883886876685
Ronaq,55.95824025604411,-3.226800760323357
MacKenzie Malcolm Construction,55.92127167143418,-3.24313899951621
n/a,55.92123509477409,-3.2432018377148855
Scotia Property Heating,55.9212075007577,-3.243264963411062
Craiglockhart Pharmacy,55.923689404957656,-3.2368310898528727
Kim O'Donell Hairdressing,55.92370640628253,-3.2369276513193714
vacant,55.93232819427982,-3.140553583135686
Day-Today,55.9322656096797,-3.1405197307710857
Belmonte & Co,55.93220302506918,-3.140485878516864
Mid Yoken,55.95206428185345,-3.303221510543193
Spice Lounge Kitchen,55.9474984773623,-3.29480526475485
J. & C. Cowe (Plumbers) Ltd.,55.94258648158033,-3.2953618353871157
Ruan Mai,55.95080097304052,-3.1900845842038636
Millar & Carter Steakhouse,55.96520415584641,-3.3173127839317584
Cramond Inn,55.979682900839904,-3.3001116793597864
Tesco Metro,55.96616118289307,-3.2741527750244614
Royal Bank of Scotland,55.96561974852138,-3.2743752886764113
Cramond Gallery Bistro,55.979607492296715,-3.30044570619095
n/a,55.97965868170569,-3.300703849374043
The Escape Hour,55.95082396595055,-3.183967793552484
Lindsay & Gilmour + Post Office,55.974631964489504,-3.238264263170056
Glow Beauty,55.97466789494546,-3.2382654113112244
Caramelove,55.974766542744106,-3.238284587963114
Scotmid Late Shop,55.9751970643404,-3.2383624438369742
vacant,55.97538521629644,-3.238416530728748
Shell + Select Shop,55.96794027829522,-3.236224020273534
Bramble,55.962720437737445,-3.1783719044011995
The Advice Centre For Mortgages,55.96271921248047,-3.1785000214169705
Lloyds Pharmacy,55.96278209228527,-3.1785019328688136
The Lints Partnership,55.96289095834873,-3.17839310677973
Ocean,55.96295445074641,-3.1783309591739597
DNA,55.962981858657656,-3.178283734048985
Apollo Blinds,55.96301809624789,-3.1782527966145637
Ladbrokes,55.96306362291587,-3.178190102585378
Freak Body,55.96318147153634,-3.1780815478096156
William Hill,55.9632178621831,-3.178034595194012
Edinburgh Mortgage Centre,55.96330860908396,-3.177941235580034
Barnardo's,55.96334484658888,-3.1779102975678932
PC Repair man,55.96337210125572,-3.177879086571332
Coffee Home,55.963417474656524,-3.1778324064527657
Leith Walk Kebab and Pizza House,55.963453712134296,-3.1778014682530946
Yellow Bench,55.96348096677382,-3.1777702570930937
Gaia Deli,55.963508221405526,-3.1777390458893753
Clydesdale Bank,55.96155585620988,-3.180819422717413
MPs Office,55.961646912099546,-3.1806940452553616
Nail & Spa,55.961692439997016,-3.180631356303988
Borlands,55.961719848781385,-3.180584134341671
caf‚ no. 9,55.96175608694253,-3.180553200055402
Edinburgh Independent Mortgage Advice,55.961783495697254,-3.180505977960547
Peoples Ford,55.92059167748767,-3.30368521981715
B & Q Warehouse,55.92433613120037,-3.3081639672949867
Tesco,55.92467581428838,-3.3057908358781196
Decathlon,55.92536423967228,-3.3061180697065997
vacant,55.925694893468766,-3.306289236968722
Mothercare / Early Learning Centre,55.92592741892,-3.3063930873613523
Staples,55.92606147678635,-3.306461616325686
Carpetright,55.92632925291366,-3.3066306733744604
Poundworld,55.926481445272195,-3.3066838096751026
Halfords,55.92665126298078,-3.3067695490569404
TK Maxx,55.92691920841749,-3.3069226117720483
Evans Halshaw (Vauxhall),55.9217578301209,-3.3013239752849834
West End Garage (Skoda),55.922477124565475,-3.3021322277972827
Western Nissan,55.92296777686275,-3.3024687461216833
Cumberland Bar,55.958991168205216,-3.1970474009446535
Murray John,55.958914015497136,-3.1975896225851526
THE WIND SECTION LIMITED,55.95886816776532,-3.1976843129107353
Staran Architects,55.95835161468647,-3.2009038971027364
Susanne,55.95833255663336,-3.201015429482661
Freja Designer Dressmaking,55.9580835425661,-3.2025934409125174
Grooming Marvelous,55.95826179103543,-3.2027431266758972
Zed Printing,55.9582713990037,-3.202679354712216
New Town Foot Care,55.95829030227309,-3.2025838360045826
Occupational Health & Safety Services,55.95746786989726,-3.161874841627415
Great Grog,55.940665602377535,-3.1769655459858375
The Sandwich Shop,55.93861591506453,-3.174245827661127
M.S Newsagents,55.938589576691925,-3.1741809933866585
New Garden Grove,55.938563238284694,-3.174116159199957
The Crags,55.938214278872856,-3.173961518179992
Thaisan,55.9348773409655,-3.168642040967166
vacant,55.93483303378048,-3.16857667576945
Fairington,55.933875474290446,-3.1672192334631597
vacant,55.93381335215199,-3.16713732853068
The Scruffy Dog Company,55.933777875423644,-3.1670882397227023
On A Roll,55.93374239867513,-3.167039151004625
Beauty by Shannon,55.933724736104125,-3.1670066053141612
Cyrus Barbers,55.933680276413185,-3.1669572466423825
unknown,55.933653782520075,-3.1669084282519475
vacant,55.93361815409503,-3.1668753425428964
Vulcan Gas Services,55.933582677259075,-3.166826254222195
Flamingo Bathrooms,55.93353836908306,-3.166760893284018
Amir & Sons,55.93345858396171,-3.166646444496374
vacant,55.93342310703184,-3.1665973565873853
Shanaz,55.93337879873098,-3.1665319961799656
Dalkeith Road Footcare,55.933343321754165,-3.1664829084768313
William Hill,55.93328135065155,-3.166385003299378
Grey Horse,55.93323689070289,-3.16633564590681
Bodrum Express,55.93317491948001,-3.166237741233586
SBC Financial,55.9330949823524,-3.1661392970719966
The Bookworm,55.93305950521443,-3.1660902100880324
Jade Palace,55.933023876560796,-3.166057125640887
vacant,55.93298839938896,-3.16600803882237
vacant,55.93295307367956,-3.1659429496755087
"Madistons, Ratho Park",55.90908787893979,-3.368473022939279
Vacant,55.96523285482376,-3.1759170654917424
vacant,55.96506343330378,-3.174838569804519
Ace Property Care,55.965006908389,-3.1760543935259804
Stack,55.96460700901583,-3.1737033335739557
Paragon Print Co.,55.9645902636293,-3.173574666216209
Hay Sushi,55.94539726317796,-3.2171074958914714
Verandah,55.945369998691085,-3.2171386649047675
Sushiya,55.945306803284595,-3.217168706529194
Premier,55.945243449708585,-3.21721475524486
Chilli Hut,55.94516197248977,-3.2172762472535372
Shelter,55.94511674250501,-3.217306852228798
Mint  Beauty Therapy,55.94508049524041,-3.2173377390059934
Jim's Barbers,55.9449537879452,-3.217429835207897
Aqua Vapour,55.94493566429852,-3.217445278482235
Dudes and Divas,55.94490855792233,-3.2174604398428666
ADE Blessing Salon,55.944890276074474,-3.2174918901255594
Greggs,55.944808798717936,-3.217553381001303
Thai@Haymarket,55.944845204237545,-3.2175064876173805
The Cheque Shop,55.94476356866451,-3.217583985379895
Zuri,55.944736462271266,-3.2175991465778697
Appellation Wines,55.94470021493378,-3.2176300327833767
Save the Children,55.94465498486133,-3.217660636988526
Stitch Express,55.94461889573131,-3.2176755161453943
Development Direct,55.944437975350425,-3.2177979320779975
Delish,55.944293144007865,-3.2179054680846315
Xingbala Hotspot,55.94424791386696,-3.217936071653512
Apple Pharmacy,55.94418456000479,-3.217982117880448
Caledonian Newsagent,55.944148470835415,-3.2179969965636723
Edinburgh Print and Sign Centre,55.94393886077032,-3.2182946364996843
Edinburgh Pearl Lettings,55.94387471521544,-3.218420714861481
Dalry Hairstylists,55.94384713375296,-3.218483894948396
Little Vietnam,55.94380142847278,-3.218562517252037
Simpsons,55.943773688593595,-3.2186417036915755
Feast,55.94375508974396,-3.218705165631428
Wallaces,55.9436163893881,-3.2191010957056285
Post Office,55.94359794871579,-3.2191485506683537
First Coast,55.94352450271253,-3.219306357134725
Shebeen,55.943450898056064,-3.2194801694377477
Cleopatra Internet Caf‚,55.94329375426142,-3.2199235478382113
Creditas,55.943247889548886,-3.220018173669162
Salvation Army,55.94320202476433,-3.220112799276169
Space Clinics,55.94316545972061,-3.2201756945502065
Scotts,55.94311045353838,-3.220286043528799
Clock Cafe,55.94308271256048,-3.220365227317428
Dominos,55.9429454344044,-3.2206170885857697
All in One,55.9429181690392,-3.220648253175861
Vacant,55.94289074505641,-3.2206954239189844
CJ's Cafe,55.94287246239132,-3.2207268710440378
MGM Lettings,55.94278136621263,-3.2208520939242034
Shoppers Spot,55.94272651807473,-3.2209464347236496
Tailor Express,55.942680969890745,-3.2210090457447444
BMG Office Equipment,55.94266252849016,-3.2210564986527133
First Class Mortgage Advice,55.94263526301502,-3.2210876627081384
Paradise,55.942616980250826,-3.221119109441657
Vacant,55.94258955608964,-3.221166279486391
De Africa,55.94255314919205,-3.2212131667215016
Bazyliszek,55.94247071785124,-3.2213706822433967
Jubilant Mart,55.94242516945395,-3.221433292355048
Floxzee,55.94238860374297,-3.2214961851266057
Mam Kanguis Delicacy,55.94235203800025,-3.221559077779676
Radio Link,55.942315630954795,-3.22160596436036
vacant,55.94228804787398,-3.221669139637437
Media Education,55.942251799528236,-3.2217000201108
ELS Service,55.94222421639973,-3.2217631952170698
Orchid,55.94222421639973,-3.2217631952170698
Lazeez Halal Tandoori,55.94222421639973,-3.2217631952170698
Lidl,55.94139104584574,-3.221512811300259
Eastern Cuisine,55.94573702521556,-3.2172782791892582
Troy,55.94525730221951,-3.2176315059541607
Ali Baba Kebabs,55.945202931200164,-3.2176778358067897
Mind Wishes,55.945175824796785,-3.2176929971062993
Haymarket Barbers,55.94513957743716,-3.2177238835676274
Vallance,55.945112471028075,-3.217739044810768
City Laundry,55.94507622365694,-3.2177699311793355
Mobi Care Point,55.9450491172422,-3.2177850923661095
Sunset Beach,55.94502201082557,-3.2178002535319488
Homeware,55.944994746165385,-3.2178314217583233
Executive Dry Cleaners,55.94491342689275,-3.2178769050335942
Marshalls,55.94484093207398,-3.217938677143318
The No.1 Bead Shop,55.944813825638384,-3.2179538381223423
vacant,55.94477757821368,-3.217984724055784
Vacant,55.94473234805528,-3.2180153279059516
Inkdependent,55.944696258884235,-3.218030206760953
British Heart Foundation Furniture Store,55.9446500790459,-3.218156852121845
Vacant,55.944559618636866,-3.2182180591521377
Edinburgh Golf Centre,55.944478299221835,-3.2182635411181653
Cafe Avalon,55.94443306899456,-3.21829414441132
Dr Vapour,55.944387838759674,-3.2183247476337793
Vacant,55.944351591242615,-3.2183556328860607
Travail Employment Group / Merlin Recruitment,55.94431550203039,-3.218370511283068
Passion Hut,55.944288237227276,-3.2184016785463347
Myles Hairdressing & Beauty Therapy,55.944270113460114,-3.218417121104602
Derya Kebab House,55.94425167304804,-3.2184645771911495
Vacant,55.944215425496246,-3.218495462205761
High Spirit Co.,55.94416987854467,-3.218558078498871
Edinburgh Barbers,55.9441334726291,-3.21860497008344
Riverlife,55.94410620776727,-3.2186361370367513
Andrew Stout,55.94395947524273,-3.2189357487882715
Dickens,55.94389532903657,-3.2190618261473305
Victorian Heart Tattoo Studio,55.94386727201206,-3.219173025633066
Scotbet,55.943830390592886,-3.2192679360543024
Mia,55.94377490988163,-3.2194263079157235
Locanda De Gusti,55.94366410634063,-3.219727043753401
British Heart Foundation,55.94359869124369,-3.2199811707877193
Pound Plus,55.943561650674255,-3.2200920862556237
Cash Generator (Buy and Sell Store),55.94352476855273,-3.220186995049842
Glenmore Healthcare,55.9434875692381,-3.2203139165534145
Ramsdens,55.943441387073825,-3.220440555238692
Vacant,55.94339552196645,-3.2205351808103506
The Co-operative Food,55.94316333927752,-3.2212964188331004
Maplin Electronics,55.94272820100858,-3.2216829992653873
Kebabish,55.94263678635444,-3.221840231596804
Prestige,55.94163518594716,-3.223169596815624
Paddy's,55.941589795582274,-3.2232161978238656
Dersim Fried Chicken & Kebab House,55.94154424625708,-3.22327880434958
Ladbrokes,55.94151682127727,-3.2233259715632245
Dalry Newsagent,55.94148939627958,-3.2233731387102242
Vacant,55.94146213022508,-3.223404300199381
Benson's Bar,55.94140696220396,-3.223530645319206
vacant,55.94120679865826,-3.2237805012434158
Super Golden Fry,55.94108859224874,-3.223920866975214
vacant,55.94072403484008,-3.2244377072973305
Stewart Watt & Co,55.94070559213157,-3.2244851561775265
B & D's Kitchen,55.940578243099864,-3.2246412396685846
Georgian Windows,55.94036845799558,-3.2249548215131827
Simply Dogs,55.94036845799558,-3.2249548215131827
VACANT,55.94222405765039,-3.2217792011323296
Steven Parry Donald,55.93979442762855,-3.2257532055185054
Vidhi,55.93973973504968,-3.225831527270712
Wang Ping Travel,55.93949353817633,-3.226191974810279
Delicious China,55.93942056124821,-3.22630173704374
Orchard,55.95667480833504,-3.1621233639660393
Xanadu,55.95658830151099,-3.1617684037171037
Cafe Dalziel,55.9564428369925,-3.1609952462781044
Blaze Hair & Beauty,55.956425625577836,-3.1609146477458294
Carphone Warehouse,55.956408564968285,-3.1608180371625765
Lancers,55.95855916727614,-3.20816630727987
vacant,55.95905894985516,-3.2149093738398675
Futurity,55.95905894985516,-3.2149093738398675
Mr Eion,55.95897826330409,-3.2148908278516637
Gamma,55.95886683879387,-3.2152557453484922
The Bon Viviant,55.958600044321855,-3.2104100516194864
Raeburn,55.95784850954277,-3.2128212277310504
Pizza Express,55.958156387907906,-3.2089225955167664
Peter's Yard,55.958218324366165,-3.209020631501553
Hospices of Hope,55.958262766669144,-3.2090700697578862
Lloyds Pharmacy,55.958324860147506,-3.2091520936145734
Tariq's,55.95835133692508,-3.2092009719000805
Bank of Scotland,55.95839577915307,-3.209250410533764
debra,55.958431238625515,-3.209299569128468
Barnardo's,55.95853730256069,-3.2094790708915766
No. 33,55.95859041302481,-3.209560815771202
Sainsbury Local,55.95862587236998,-3.2096099748971874
Capability Scotland,55.958679454366845,-3.2096436818134935
ABC Hearing,55.95871491367761,-3.2096928411287964
Hector's,55.958777321166906,-3.2097428413102858
Rafael's,55.958027329851106,-3.2092549374013704
Gordon Fraser,55.9580449810129,-3.209287522712138
Saorsa Art Gallery,55.95806263216594,-3.209320108052557
David Blaikie Architect,55.9580804404744,-3.209336680891352
Getmie Safe / Tolmie Ltd.,55.95809809161409,-3.209369266283982
Just Dogs,55.95811589991567,-3.2093858391606394
Stockbridge Boutique,55.958142376601906,-3.209434717339016
vacant,55.95816002771505,-3.209467302828332
Veritas,55.95817783600296,-3.20948387577669
Ping On,55.958213295383835,-3.209533034304436
boombarbers,55.95824859754801,-3.209598205521563
Sabor Criollo,55.95827523135092,-3.209631071402297
A Room in Leith,55.97751430515695,-3.1713699707583003
Techters Landing,55.97750654038172,-3.171241532983205
vacant,55.977285165531825,-3.171843802253399
Kinloch Anderson,55.97691409980005,-3.174011998859196
Daz-l,55.89497159682838,-3.3182097046382726
Kats,55.89501633790107,-3.3182272137533237
vacant,55.89506125015534,-3.3182287370119057
vacant,55.90071562430256,-3.2330129545993156
Shell + Select Shop,55.90021947445539,-3.23230948578777
Scotmid,55.9511994783674,-3.295761586066437
Drumbrae Dental Practice,55.9512748734281,-3.2954277937390084
Drum Brae Solutions Ltd,55.95129452156408,-3.295268301729245
Heads Together,55.95131400120078,-3.295124818769276
Drumbrae Veterinary Centre,55.95132382509911,-3.295045072624961
Hair & Brow Stuart Gale,55.959686401212714,-3.300450233566797
J.K. McCrone,55.94816620735113,-3.2945393101704323
Lidl,55.906644427080636,-3.133129097752384
Iceland,55.90646903840339,-3.133635853982324
Instyle,55.906255506248215,-3.1334056807156077
Drum Street Supermarket (Premier),55.90619321368509,-3.1333398799562744
Dominos Pizza,55.905580740140394,-3.1325222325721107
Spex Optician,55.90552787139395,-3.132408722278725
Javits,55.90546528413348,-3.1323749069323177
Ruby Murray,55.905430087243175,-3.1322939033034403
Monica Barber Shop,55.9053860542914,-3.132196646787132
Royal Bank of Scotland,55.905325378405294,-3.131954945907528
Supperbowl Fish & Chips,55.9057866207325,-3.133583950614102
H. & W. Harkess,55.905680001857796,-3.133452874482015
Gilmerton Newsagent,55.90564465847817,-3.1333878607914443
Ladbrokes,55.90562006434836,-3.1331312131089306
Abercorn Veterinary Clinic,55.905558065950935,-3.133033431234371
Mechanics Arms,55.90519623355807,-3.1323190789673374
vacant,55.904611267122704,-3.1304625807908004
National (Gilmerton Service Station),55.904433514327344,-3.130249472140229
vacant,55.94292992293461,-3.202091662334723
vacant,55.95836968320396,-3.1962753908373354
The Hispaniola,55.94741988768711,-3.1856893720987127
vacant,55.947214207016266,-3.185587007885747
Red Fort,55.94723309698804,-3.1854915078135186
Woods Barber Shop,55.947279551493736,-3.1853327982965127
The Brass Monkey,55.94728915040912,-3.18526903990995
b'est,55.947335296632474,-3.1851423463717055
999 Coffee Box,55.951326102665924,-3.2127133497625
Flavour Sandwich Solutions,55.951408360944114,-3.211658952642312
Cheynes,55.9514255391288,-3.2117395627472636
St. Columba's Hospice,55.95144287473303,-3.211804163145734
Johnsons,55.951460210303104,-3.211868763601566
Mr. James,55.951476758370674,-3.212013413067007
AGA Edinburgh,55.95148495358616,-3.2120937427416316
La Campagnola,55.95148353591809,-3.2122378308717674
Digital Print Centre,55.95147329289241,-3.21236562840945
Roberto's,55.95344239560818,-3.296092776240351
Caledonian News,55.9534144376914,-3.2961879361027706
Anna's,55.953404781483584,-3.2962516761663716
Nahar,55.95342173566263,-3.2963483370915845
Dental Surgery,55.95340275999275,-3.2964437969927762
Day-Today,55.95338378424932,-3.2965392567995826
Madison Hair,55.95336480843235,-3.2966347165120027
Omnicare Pharmacy,55.95334583254181,-3.2967301761300387
Marmaris,55.95331787413573,-3.2968253352896975
Ladbrokes,55.95329889809841,-3.2969207946970718
Lord Bodo's,55.95606753488332,-3.1927608079871863
The Square,55.95611229383939,-3.192778201295428
Mosko,55.956148069999976,-3.1927953183375677
Linzi Crawford,55.95700592168336,-3.1932861978631313
Stac Polly,55.95711340500052,-3.1933215394802357
Factotum,55.958008891980995,-3.1936374108566774
Ampersand,55.95810723725574,-3.193688490502635
vacant,55.95706306195597,-3.1938805844572555
Spitfire Bar,55.95698252716857,-3.193846071016832
Steven Boles,55.95760821881863,-3.1941856790595033
Pro Active,55.95765297755222,-3.1942030747252024
No sign,55.95786747797051,-3.194321802058898
Mister India,55.94388938037157,-3.1173566800234873
Canton Cuisine,55.94384475550047,-3.117323372072429
William Hill,55.9361865706795,-3.114637608436954
Farmfoods,55.93524740248246,-3.11416241550549
Scotmid,55.93493285020674,-3.1141693927715264
Duddingston Fry,55.93480737671223,-3.1141337753260343
Coffee Drive,55.93922704934647,-3.1152532583876402
Jays,55.94723941651014,-3.1303274454377554
Duddingston General Store & Newsagent,55.9472495744915,-3.1301996390868068
The Bizzy Lizzy,55.942369236702554,-3.144931497327092
RAMSDENS FINANCIAL LTD,55.97088893058409,-3.1716984658585603
Lloyds Pharmacy,55.97084493012635,-3.171600999870166
BRITISH HEART FOUNDATION,55.97078296391032,-3.1715029910511303
The Foot Of The Walk,55.97059736924292,-3.1711769306313644
Fones 2 You,55.970553063930375,-3.171111501776008
Biurapi,55.97051789363381,-3.1710303265971738
Duke Barbers,55.97049155392592,-3.170965440839558
Marksman Bar,55.970465518562854,-3.1708685194309143
vacant,55.97043948312292,-3.170771598151647
The Bethany Shop,55.97035178493303,-3.1705446351049513
The Lioness of Leith,55.97022952389671,-3.170172428121728
The Conservation Studio,55.97023850674178,-3.170172699333492
Duke's Head,55.970168316915846,-3.169994334382644
Lucky Budha,55.97011594046962,-3.169832530062927
vacant,55.97008960012306,-3.169767645786999
Turnbull & Co.,55.97006325974185,-3.1697027615990208
Frying Nemo,55.97001971374034,-3.169557246864677
vacant,55.96987080507384,-3.1691521979519712
AIM,55.969835481515226,-3.1690870435896654
vacant,55.97028312201344,-3.1711514122475473
vacant,55.970248712780794,-3.170990148706546
vacant,55.970205168309676,-3.170844631848082
Watt Property Manager,55.96953112825909,-3.168965708710215
Max Yarns,55.96935435769878,-3.1686559592275363
S & J Motors,55.969266048059,-3.1684930768518007
vacant,55.969239403252665,-3.168460229660685
Armaan's Tasty Bites,55.96918626547574,-3.1683785180590003
vacant,55.9691596206379,-3.168345671014553
Ju-Pa,55.96908014159453,-3.1681990782159115
Bombay Spice,55.96904481751813,-3.1681339260538426
The Parlour,55.96899167951954,-3.1680522153102317
vacant,55.968920727564566,-3.1679539461663597
Bangers,55.96889423441112,-3.167905082402285
Links Engraving Co.,55.96885891017574,-3.1678399308207124
Scotmid funeral parlour,55.96880562019558,-3.1677742380743807
vacant,55.94879004165438,-3.17774049952463
Community Centre,55.948664128679994,-3.177752689934962
vacant,55.917922996375566,-3.27101750340249
Rachael Scott,55.95627303282006,-3.198437025250185
Spice Pavillion,55.95630880817016,-3.1984541475738233
Spice Pavillion,55.95633544499439,-3.198487004181217
Sturrock Armstrong & Thomson,55.95638004735642,-3.1985204161035483
Ritz Hair & Beauty,55.956433632481975,-3.1985541057465965
Arusha Gallery,55.95654111423549,-3.1985894613967902
vacant,55.95651432167959,-3.1985726164914325
McPherson Day Gallery,55.95650642918931,-3.198460255228013
Dickins,55.95668437129653,-3.198641939914176
Kweilin Cantonese Restaurant,55.95676474892445,-3.1986924750705557
The Photography Gallery,55.95704181275779,-3.1988451926759476
JA Leask Architects,55.95706860527234,-3.1988620380033153
vacant,55.95710422475159,-3.1988951732695776
Spark,55.95717577530527,-3.198929419547809
James Ritchie & Son,55.957354495819715,-3.199031048096126
Bulthaup,55.95740839244141,-3.1990327146794244
CAMERON INTERIORS,55.957471116007916,-3.1990506713741795
Epitome,55.95750673543187,-3.199083807162067
Bryce McKenzie,55.95754251067999,-3.1991009306417526
unknown (non-English lettering on fascia),55.957578285925386,-3.19911805415346
Archipelago Bakery,55.957631870869015,-3.1991517456841208
Colours Gallery,55.95766764610646,-3.199168869283219
James Scott Antiques,55.957703421341165,-3.199185992914341
Keen Kost Newsagent,55.95803375762467,-3.199404435160776
Quadrant Antiques,55.958069532822876,-3.1994215591751445
Quadrant Antiques,55.958105308018354,-3.199438683221537
Unicorn Antiques,55.95830183770747,-3.1995568850697067
Robb Reinstatement Ltd,55.958561090726825,-3.1996930463902147
Dundas Veterinary Group,55.95916926795508,-3.199984167581389
Christopher Ness,55.959196060297195,-3.2000010146382425
Vacant,55.95923167944536,-3.200034152791539
KITCHENS INTERNATIONAL LTD,55.96045748213533,-3.200568662942316
Glass & Thompson,55.95614213332554,-3.198961527892094
Anthony Woodd,55.95643700656484,-3.199130812359538
The Dundas Street Gallery,55.95628523441356,-3.199030019071802
The Scottish Gallery,55.956579951702366,-3.199215316670138
The Sutton Gallery,55.956633692480274,-3.1992329954546004
Greyfriars Art Shop,55.956669467713745,-3.199250118674776
Edinburgh Gallery,55.95671406986133,-3.199283531764903
New Town Beauty & Nails,55.956946686713835,-3.1993868277473307
Belvoir,55.95723257653222,-3.1995558411542726
Vacant,55.95730412689492,-3.1995900887653836
The Torrance Gallery,55.95746488130988,-3.1996911648598694
Marwicks,55.95750065647143,-3.199708288879565
Rachel Scott Accessories,55.957527448862486,-3.1997251350052602
Ravenous,55.957563224018706,-3.1997422590846645
The Ringmaker,55.957590016404616,-3.1997591052615477
Ian Dickson Travel Service,55.9576257915555,-3.199776229400662
Braemore,55.95799221378999,-3.199979775635669
Lucinda Ellery,55.95910092908471,-3.200542676813773
Margiotta,55.95990563242343,-3.200952029374978
Edinburgh Blue,55.959950390146,-3.200969433904222
Finnegan's Sandwich Bar,55.95999499178261,-3.2010028518452054
Club Sandwich,55.960039749496914,-3.2010202564745667
e-cigarettes,55.960039749496914,-3.2010202564745667
Bacco,55.9600933338782,-3.201053952812675
Zen Kitchen,55.96013809158411,-3.201071357546651
Clark's Bar,55.96017386652768,-3.2010884840520926
vacant,55.96023643364744,-3.201122458881137
vacant,55.96027205247959,-3.2011555989626936
Cuckoos Bakery,55.96030782741006,-3.20117272560659
Trigg,55.96034360233783,-3.2011898522825195
Caffeine,55.960388360021575,-3.201207257289482
Dundas News & Dundas Deli,55.960423978829134,-3.2012403975804062
Lezzetli,55.96047771926318,-3.201258080994696
vacant,55.960745484567425,-3.2014425808878326
Sainsbury's Local,55.940636415326914,-3.2169581523354434
Fountainpark Fry,55.940469981540836,-3.217433237684537
Spicy Bite,55.94044224239976,-3.217512418178333
The Fountain,55.94030307119544,-3.2179563343808795
Scotbet,55.94011613487549,-3.2186869282376946
Lime,55.94009769437086,-3.218734379143402
N&N Barbers,55.9400880782202,-3.218798117210137
Wingsing Inn,55.94005103873529,-3.21890902383749
Myriad,55.940022823491866,-3.2190362174845646
Haven Ink Tattoo,55.940004224456516,-3.219099673124771
Food & News,55.9399109119102,-3.219448960359123
Fountain News,55.9399109119102,-3.219448960359123
Maria's Pizza,55.93988301302825,-3.2195441432219023
Tugas Amor,55.93986457219594,-3.2195915934321278
WeFix,55.939845972876476,-3.2196550485444124
Tin Tin Seafood Harbour,55.93982721504523,-3.219734508534618
Hair Workshop,55.939780558000955,-3.2199091507935296
The Sandwich Hub,55.93975265876587,-3.220004333002038
Fountainbridge Pharmacy,55.9397339007107,-3.2200837926297834
Dundee Street Sub Post Office,55.939715301139394,-3.220147247289794
Stile,55.939713816106874,-3.2212038524165743
The Door Depot,55.93969991358629,-3.221699720902273
Papa John's,55.940636415326914,-3.2169581523354434
Nando's,55.9418629917482,-3.215587678347888
Virgin Active,55.94186325427963,-3.2173808909885135
vacant,55.941553728078,-3.2177874555069863
vacant,55.94181913148257,-3.2172994528750274
Mr Basrai's World Cuisine,55.94191968126701,-3.217126489026124
Pizza Hut,55.94096747686375,-3.2180092110909198
McCowans Bar,55.94074227552587,-3.2180661828331236
Victor Paris,55.939935588085916,-3.2205864434732296
Victor Paris,55.93994171583085,-3.220874815699013
Munro Glazing,55.939640426820425,-3.2204490798921253
So Good,55.9396218270622,-3.2205125342221836
Piatto Verde,55.939603068681215,-3.2205919933326332
Guru Balti Restaurant,55.93958399304194,-3.220703462031877
David Philips Autos,55.93962113247401,-3.2214891125291967
ROBERTSON LINDSAY LTD,55.95891868372091,-3.1971092341790865
Bank of Scotland / HBOS,55.94430474615368,-3.203927575477692
Co-Op,55.94447322853086,-3.204156969233147
City Health Clinic,55.944615075140234,-3.2043535143660407
Kaffe Kantante,55.94389770520594,-3.2042031522069747
Sainsburys Local,55.943950975944034,-3.2042688520561367
Project Space at Bargain Spot,55.94411063143449,-3.2044819594849265
Boots,55.94416390201878,-3.204547660079384
Hot Shave Barbers,55.94424365129744,-3.2046622181598554
Remploy,55.944314730783255,-3.204744483998466
Tesco Express,55.94442111506591,-3.204891893705615
Salvation Army,55.944465559222834,-3.2049413094515002
Genix Healthcare Ltd,55.944509846784165,-3.205006732268328
Thyme,55.944563117079014,-3.2050724342629495
Costa Coffee,55.94463388308586,-3.2051867155496616
Earlston Convenience Store,55.95742861044801,-3.167928116913483
White Eagle,55.9574120106642,-3.1677834633277566
Megasun,55.957395410710035,-3.167638809863612
Sea Breeze,55.9573963211424,-3.1675427349175447
Pretty Woman,55.95733799206367,-3.1670604675824943
Barnardo's,55.95728940197559,-3.1664984096562407
Venture Portraits,55.95725604731086,-3.1662251172652423
Fabric Focus,55.965114747255036,-3.190091432196008
Spitaki,55.96520534849131,-3.1900141120099113
M & A Store,55.961925867898685,-3.191851744630744
A Flat in Town,55.96197093673201,-3.1918371111341264
P & W Plumbing,55.9620161604574,-3.1918064633452548
Backbeat Records,55.943754563672634,-3.1828073667158066
vacant,55.943807927771545,-3.181928362166775
vacant,55.943808388493395,-3.1818803417595887
Scottish Child Law Centre,55.94395187883097,-3.1828454055288486
Alba Flamenco,55.943977526745186,-3.1820456099067065
vacant,55.943978601842474,-3.1819335618028464
Southside Glazing & Joinery,55.94398927392151,-3.181757759821531
The 3 Stooges Barber Shop,55.94564006640578,-3.2024478490643773
Coffee Mavi,55.94568607395764,-3.20233718902418
Scoff,55.945667639701256,-3.202384654561865
Tattoo Supplies (UK)Ltd,55.94570466442011,-3.20227371597523
Tattoo Supplies (UK)Ltd,55.94562147585427,-3.202511321923396
Jardinework,55.945079518539266,-3.204640137754784
Guchhi India,55.94504280478764,-3.204719057917112
The Riparian Rooms,55.95925394497336,-3.19032800250304
The Edinburgh Nursery,55.959291423014314,-3.1901689741472543
Bond Chartered Accountants,55.9593106259439,-3.1900414203972063
McSporran - Criminal Defence Lawyers,55.95979351725135,-3.1893514453242733
Edinburgh Carpet Warehouse,55.96044076893483,-3.1855909671142264
n/a,55.937033011054694,-3.352248565167058
Helen Lowe & Co.,55.93483958718461,-3.1688329971422537
Helen Lowe & Co.,55.934858464111876,-3.1687375191015867
Precision Hairdressing,55.957351922476875,-3.170328363868473
Caf‚ Piccante,55.95737689366366,-3.1705373392946714
Look Smart,55.95738526802362,-3.1706016603390226
Abbeyhill Electrical Services,55.9573848116247,-3.170649697746676
vacant,55.957401712345096,-3.1707623274606846
Rock n Roll,55.95740978226481,-3.170858673549734
vacant,55.95742668279346,-3.170971303424832
The Best Little Hair House,55.95743490473874,-3.1710516371299167
Edinburgh Dry Cleaners,55.957451044048966,-3.1712443296263335
Changes,55.95746718305718,-3.1714370222790453
Feel Beauty,55.95746657408643,-3.171501072271757
The Maple Project,55.957474034373,-3.1716614686692046
Sports Portraits,55.95748986813801,-3.1718861866117054
Forn,55.939064873943316,-3.178982220069884
diedododa [sic],55.93916144075913,-3.1782807336475623
Cut Above,55.98959975435328,-3.39334297516154
Grove Office & Window Cleaning,55.97757618699309,-3.1976535575921803
Toccata,55.97756642581849,-3.197733383181601
Margaret Lynn & Associates,55.97764784288537,-3.1986012767211656
W.D. Johnstone,55.97760137103381,-3.198760093922253
M.P. Braidwood,55.977113125282976,-3.1999949602279383
Trinity Joiners and Builders,55.97710383057245,-3.2000267229230546
Premier Launderette & Linen,55.96566702508199,-3.2433608087162873
vacant,55.9657741699896,-3.2434283281715746
vacant,55.965827742428196,-3.2434620880405816
Key Store,55.9669898236057,-3.244060108332182
vacant,55.9670701819713,-3.2441107511014464
Drylaw Butchers,55.96715054031409,-3.244161394082779
Max-bud,55.96724999577075,-3.2441005011803243
J.W.Glazing & Joinery,55.96724999577075,-3.2441005011803243
vacant,55.96709357193202,-3.2444639690031507
Movie Xpress,55.958225091674535,-3.1720525636658152
20/20 Opticians,55.95828812398994,-3.1720384515092297
Free Space,55.95841403629887,-3.172026239948694
MacKay Sinclair WS,55.95872006266781,-3.1719714196896334
Hairsute,55.958828313864075,-3.1719266386612137
vacant,55.95886424528865,-3.171927724669552
Lothian Cat Rescue,55.958900329016906,-3.171912797593048
Scot Comp,55.95893626044126,-3.1719138835915044
vacant,55.95899030987971,-3.171899499469286
XS Locksmith,55.959026393604155,-3.1718845723195734
Bowdens,55.95907130788407,-3.1718859297917765
The Alchemist's Cave,55.95916128874203,-3.1718726315524903
Valente McCombie & Hunter,55.95921533817432,-3.1718582472935855
Easter Road Podiatry,55.95929633617195,-3.171844677457615
Trimmers,55.95933226759484,-3.171845763409124
Mr Grey Tattoo,55.9593683513116,-3.1718308360821035
Better Hearing Centre,55.95940428273423,-3.17183192202373
Kool Kutz,55.95946746730642,-3.1718017957835007
M & S Foodstore,55.959512533873095,-3.1717871398415687
Ladbrokes,55.95958439671759,-3.171789311658101
Middletons,55.95977364581996,-3.171730958928865
vacant,55.95980972952145,-3.1717160313306176
Hard to Find Hair Studio,55.95985464379834,-3.171717388647606
People First Scotland,55.95989072749793,-3.171702461006576
Glam Hair Studio,55.95994477690626,-3.171688076253725
unknown,55.95998984345734,-3.171673420006739
Shapla,55.96004374058879,-3.1716750487393996
Marilyn Hair & Beauty,55.960106772848185,-3.1716609353476946
vacant,55.960142856540116,-3.1716460075602333
vacant,55.96017878796059,-3.1716470933622363
vacant,55.96021487165062,-3.1716321655350788
Smart Cut,55.96025993819383,-3.1716175091252885
Imagina Studio,55.960305004735126,-3.1716028526821343
Tax Assist Accountant,55.9603499190102,-3.1716042098933204
Skyway,55.96066523249118,-3.1715176275726864
